Company Name,Product Name,Location,Latitude,Longitude
Apple Inc.,Smartphones,"Zhengzhou, China",34.7466,113.6253
Apple Inc.,Smartphones,"Shenzhen, China",22.5431,114.0579
Apple Inc.,Smartphones,"Chengdu, China",30.5728,104.0668
Apple Inc.,Smartphones,"Bangalore, India",12.9716,77.5946
Apple Inc.,Smartphones,"Sriperumbudur, India",12.9906,79.9714
Apple Inc.,Portable Computers (Laptops),"Zhengzhou, Henan, China",34.7466,113.6254
Apple Inc.,Portable Computers (Laptops),"Chengdu, Sichuan, China",30.5728,104.0668
Apple Inc.,Portable Computers (Laptops),"Shanghai, China",31.2304,121.4737
Apple Inc.,Portable Computers (Laptops),"Shenzhen, Guangdong, China",22.5431,114.0579
Apple Inc.,Tablets,"Zhengzhou, Henan, China",34.7466,113.6253
Apple Inc.,Tablets,"Chengdu, Sichuan, China",30.5728,104.0668
Apple Inc.,Tablets,"Shenzhen, Guangdong, China",22.5431,114.0579
Apple Inc.,Tablets,"Bangalore, Karnataka, India",12.9716,77.5946
Apple Inc.,Wireless Earphones,"Zhengzhou, China",34.7466,113.6254
Apple Inc.,Wireless Earphones,"Shenzhen, China",22.5431,114.0579
Apple Inc.,Wireless Earphones,"Chennai, India",13.0827,80.2707
Apple Inc.,Wireless Earphones,"Bangalore, India",12.9716,77.5946
Apple Inc.,Wireless Earphones,Vietnam,14.0583,108.2772
Apple Inc.,Desktop Computers,"Austin, Texas, USA",30.2672,-97.7431
Apple Inc.,Desktop Computers,"Cork, Ireland",51.8985,-8.4756
Microsoft Corporation,Portable Digital Automatic Data Processing Machines,"Shenzhen, China",22.543096,114.057865
Microsoft Corporation,Portable Digital Automatic Data Processing Machines,"Suzhou, China",31.298979,120.585290
Microsoft Corporation,Portable Digital Automatic Data Processing Machines,"Chengdu, China",30.572815,104.066801
NVIDIA Corporation,Electronic Integrated Circuits as Processors and Controllers,"Santa Clara, California, USA",37.3688,-121.9680
NVIDIA Corporation,Electronic Integrated Circuits as Processors and Controllers,"Austin, Texas, USA",30.2672,-97.7431
NVIDIA Corporation,Electronic Integrated Circuits as Processors and Controllers,"Yokneam, Israel",32.6640,35.1043
NVIDIA Corporation,Electronic Integrated Circuits as Processors and Controllers,"Hyderabad, India",17.3850,78.4867
NVIDIA Corporation,Parts and Accessories of Machines of Heading 8471,"Santa Clara, California, USA",37.3688,-121.9680
NVIDIA Corporation,Parts and Accessories of Machines of Heading 8471,"Taipei, Taiwan",25.0330,121.5654
NVIDIA Corporation,Parts and Accessories of Machines of Heading 8471,"Shenzhen, China",22.5431,114.0579
Alphabet Inc.,"Machines for the reception, conversion and transmission or regeneration of voice, images or other data, including switching and routing apparatus","Sunnyvale, California, USA",37.3861,-122.0839
Alphabet Inc.,"Machines for the reception, conversion and transmission or regeneration of voice, images or other data, including switching and routing apparatus","Mountain View, California, USA",37.3861,-122.0839
Alphabet Inc.,"Machines for the reception, conversion and transmission or regeneration of voice, images or other data, including switching and routing apparatus","Council Bluffs, Iowa, USA",41.2619,-95.8608
Alphabet Inc.,"Machines for the reception, conversion and transmission or regeneration of voice, images or other data, including switching and routing apparatus","The Dalles, Oregon, USA",45.5946,-121.1787
Alphabet Inc.,"Machines for the reception, conversion and transmission or regeneration of voice, images or other data, including switching and routing apparatus","Lenoir, North Carolina, USA",35.9140,-81.5389
Alphabet Inc.,"Machines for the reception, conversion and transmission or regeneration of voice, images or other data, including switching and routing apparatus","Changhua County, Taiwan",24.0518,120.5160
Alphabet Inc.,"Machines for the reception, conversion and transmission or regeneration of voice, images or other data, including switching and routing apparatus","St. Ghislain, Belgium",50.4500,3.8167
Alphabet Inc.,"Reception apparatus for television, whether or not incorporating radio-broadcast receivers or sound or video recording or reproducing apparatus","Mountain View, California, USA",37.3861,-122.0839
Alphabet Inc.,"Reception apparatus for television, whether or not incorporating radio-broadcast receivers or sound or video recording or reproducing apparatus","Shenzhen, Guangdong, China",22.5431,114.0579
Alphabet Inc.,"Reception apparatus for television, whether or not incorporating radio-broadcast receivers or sound or video recording or reproducing apparatus","Hsinchu, Taiwan",24.8138,120.9675
"Meta Platforms, Inc.",Networking Equipment,"Prineville, Oregon, USA",44.2986,-120.8342
"Meta Platforms, Inc.",Networking Equipment,"Forest City, North Carolina, USA",35.3344,-81.8651
"Meta Platforms, Inc.",Networking Equipment,"Altoona, Iowa, USA",41.6448,-93.4607
"Meta Platforms, Inc.",Networking Equipment,"Luleå, Sweden",65.5848,22.1544
"Meta Platforms, Inc.",Networking Equipment,"Odense, Denmark",55.4038,10.4024
"Meta Platforms, Inc.",Virtual Reality Headsets,"Goleta, California, USA",34.4358,-119.8276
"Meta Platforms, Inc.",Virtual Reality Headsets,"Cork, Ireland",51.8985,-8.4756
"Meta Platforms, Inc.",Augmented Reality Glasses,"Sunnyvale, California, USA",37.3688,-122.0363
"Meta Platforms, Inc.",Augmented Reality Glasses,"Menlo Park, California, USA",37.4845,-122.1477
"Flowers Foods, Inc.","Rusks, toasted bread and similar toasted products","Thomasville, Georgia, USA",30.8366,-83.9784
"Flowers Foods, Inc.","Rusks, toasted bread and similar toasted products","Villa Rica, Georgia, USA",33.7321,-84.9191
"Avnet, Inc.",Electronic Integrated Circuits,"Guadalajara, Mexico",20.6597,-103.3496
"Avnet, Inc.",Electronic Integrated Circuits,"Penang, Malaysia",5.4164,100.3327
"Avnet, Inc.",Electronic Integrated Circuits,Singapore,1.3521,103.8198
"Avnet, Inc.",Electronic Integrated Circuits,"Shenzhen, China",22.5431,114.0579
"Avnet, Inc.",Parts and Accessories of Computers,"Phoenix, Arizona, USA",33.4484,-112.0740
"Avnet, Inc.",Parts and Accessories of Computers,Singapore,1.3521,103.8198
"Avnet, Inc.",Parts and Accessories of Computers,"Munich, Germany",48.1351,11.5820
"Avnet, Inc.",Parts and Accessories of Computers,"Shanghai, China",31.2304,121.4737
"Avnet, Inc.",Printed Circuits,"Phoenix, Arizona, USA",33.4484,-112.0740
"Avnet, Inc.",Printed Circuits,"Guadalajara, Jalisco, Mexico",20.6597,-103.3496
"Avnet, Inc.",Printed Circuits,"Munich, Bavaria, Germany",48.1351,11.5820
"Rambus, Inc.",Electronic integrated circuits,"Sunnyvale, California, USA",37.3688,-122.0363
Dutch Bros Inc.,"Coffee, roasted, not decaffeinated","Grants Pass, Oregon",42.4390,-123.3284
PAR Technology Corporation,Point of Sale Terminals,"New Hartford, New York, USA",43.0707,-75.2879
PAR Technology Corporation,Point of Sale Terminals,"San Diego, California, USA",32.7157,-117.1611
PAR Technology Corporation,Monitors for Point of Sale Systems,"New Hartford, New York, USA",43.0697,-75.2974
PAR Technology Corporation,Automated Order Entry Systems,"New Hartford, New York, USA",43.0690,-75.2873
Hillman Solutions Corp.,Screws and bolts,"Cincinnati, Ohio, USA",39.1031,-84.5120
Hillman Solutions Corp.,Screws and bolts,"Rock Island, Illinois, USA",41.5095,-90.5787
Hillman Solutions Corp.,Screws and bolts,"Tempe, Arizona, USA",33.4255,-111.9400
Hillman Solutions Corp.,"Hooks, eyes and eyelets","Cincinnati, Ohio, USA",39.1031,-84.5120
Hillman Solutions Corp.,"Hooks, eyes and eyelets","Tempe, Arizona, USA",33.4255,-111.9400
"Excelerate Energy, Inc.","Reservoirs, Tanks, Vats and Similar Containers for Gas","Port Arthur, Texas",29.8849,-93.9399
"Excelerate Energy, Inc.","Reservoirs, Tanks, Vats and Similar Containers for Gas","Boston, Massachusetts",42.3601,-71.0589
"Supernus Pharmaceuticals, Inc.",Pharmaceuticals,"Rockville, Maryland, USA",39.083997,-77.152758
"Donnelley Financial Solutions, Inc.","Printed Books, Brochures, Leaflets","Warrenville, Illinois, USA",41.8170,-88.1733
"Donnelley Financial Solutions, Inc.","Printed Books, Brochures, Leaflets","Lancaster, Pennsylvania, USA",40.0379,-76.3055
"Donnelley Financial Solutions, Inc.","Printed Books, Brochures, Leaflets","Spencer, Iowa, USA",43.1450,-95.1442
Ligand Pharmaceuticals Incorporated,Heterocyclic compounds with nitrogen hetero-atom(s) only,"Cranbury, New Jersey",40.3162,-74.5149
"Krispy Kreme, Inc.",Sweet biscuits,"Winston-Salem, North Carolina, USA",36.0999,-80.2442
"Krispy Kreme, Inc.",Sweet biscuits,"Burbank, California, USA",34.1808,-118.3089
"Krispy Kreme, Inc.",Sweet biscuits,"Manchester, United Kingdom",53.4808,-2.2426
Products,Communication apparatus,"Silicon Valley, California, USA",37.387474,-122.057543
Products,Communication apparatus,"Shenzhen, Guangdong, China",22.543096,114.057865
Products,Communication apparatus,"Munich, Bavaria, Germany",48.135125,11.581981
Products,Communication apparatus,"Bangalore, Karnataka, India",12.971599,77.594566
Schlumberger N.V.,Instruments and Apparatus for Measuring or Checking Variables of Liquids or Gases,"Sugar Land, Texas, USA",29.6197,-95.6349
Schlumberger N.V.,Instruments and Apparatus for Measuring or Checking Variables of Liquids or Gases,"Eindhoven, Netherlands",51.4416,5.4697
Schlumberger N.V.,Instruments and Apparatus for Measuring or Checking Variables of Liquids or Gases,"Stonehouse, United Kingdom",51.7479,-2.2796
"Air Products and Chemicals, Inc.",Oxygen,"Allentown, Pennsylvania, USA",40.6012,-75.4714
"Air Products and Chemicals, Inc.",Oxygen,"Geismar, Louisiana, USA",30.1812,-91.0347
"Air Products and Chemicals, Inc.",Oxygen,"Baytown, Texas, USA",29.7355,-94.9774
"Air Products and Chemicals, Inc.",Oxygen,"Jubail, Saudi Arabia",27.0112,49.6583
"Air Products and Chemicals, Inc.",Oxygen,"Tangshan, Hebei, China",39.6309,118.1802
"D.R. Horton, Inc.",Prefabricated Buildings,"Fort Worth, Texas",32.7555,-97.3308
"D.R. Horton, Inc.",Prefabricated Buildings,"Arlington, Texas",32.7357,-97.1081
"D.R. Horton, Inc.",Prefabricated Buildings,"Charlotte, North Carolina",35.2271,-80.8431
Newmont Corporation,"Gold, unwrought","Boddington, Western Australia, Australia",-32.8235,116.2851
Newmont Corporation,"Gold, unwrought","Carlin, Nevada, USA",40.7130,-116.1049
Newmont Corporation,"Gold, unwrought","Tanami, Northern Territory, Australia",-19.9559,129.4063
Newmont Corporation,"Gold, unwrought","Akyem, Eastern Region, Ghana",6.2899,-0.8127
Newmont Corporation,"Gold, unwrought","Ahafo, Brong Ahafo Region, Ghana",7.0500,-2.2992
Newmont Corporation,"Gold, unwrought","Conga, Cajamarca, Peru",-6.9147,-78.3146
Newmont Corporation,"Gold, unwrought","Yanacocha, Cajamarca, Peru",-6.9261,-78.5460
Newmont Corporation,"Gold, unwrought","Merian, Sipaliwini District, Suriname",5.1519,-55.2009
Newmont Corporation,"Gold, unwrought","Peñasquito, Zacatecas, Mexico",23.0544,-102.4962
Newmont Corporation,"Silver, unwrought","Yanacocha, Peru",-6.9275,-78.5320
Newmont Corporation,"Silver, unwrought","Penasquito, Mexico",24.1421,-103.7565
Newmont Corporation,Copper ores and concentrates,"Boddington, Western Australia, Australia",-32.7567,116.4667
"Kiniksa Pharmaceuticals, Ltd.","Medicaments consisting of mixed or unmixed products for therapeutic or prophylactic uses, put up in measured doses","Lexington, Massachusetts, USA",42.4473,-71.2245
"Soleno Therapeutics, Inc.",Medicaments consisting of mixed or unmixed products for therapeutic or prophylactic uses,Soleno Therapeutics does not have its own manufacturing facilities and relies on third-party manufacturers for production.,,
Liberty Latin America Ltd.,"Machines for the reception, conversion and transmission or regeneration of voice, images or other data, including switching and routing apparatus",Liberty Latin America Ltd. does not specifically produce these devices. The company is primarily a telecommunications provider and does not have manufacturing facilities for such equipment.,,
"Camping World Holdings, Inc.",Camper vans and motor homes,"Elkhart, Indiana, USA",41.681993,-85.976667
"Camping World Holdings, Inc.",Trailers for housing or camping,"Wakarusa, Indiana, USA",41.5368,-86.0139
"Camping World Holdings, Inc.",Trailers for housing or camping,"Middlebury, Indiana, USA",41.6753,-85.7064
Vestis Corporation,"Men's or boys' overcoats, carcoats, capes, cloaks, anoraks, including ski jackets, wind-cheaters, wind-jackets and similar articles, of wool or fine animal hair","Factory A, New York",40.7128,-74.0060
Vestis Corporation,"Men's or boys' overcoats, carcoats, capes, cloaks, anoraks, including ski jackets, wind-cheaters, wind-jackets and similar articles, of wool or fine animal hair","Factory B, Los Angeles",34.0522,-118.2437
Vestis Corporation,"Men's or boys' overcoats, carcoats, capes, cloaks, anoraks, including ski jackets, wind-cheaters, wind-jackets and similar articles, of wool or fine animal hair","Factory C, Chicago",41.8781,-87.6298
Tennant Company,Floor cleaning machines,"Golden Valley, Minnesota, USA",44.9733,-93.4030
Tennant Company,Floor cleaning machines,"Holland, Michigan, USA",42.7875,-86.1089
Tennant Company,Floor cleaning machines,"Uden, Netherlands",51.6600,5.6197
Tennant Company,Floor cleaning machines,"Shanghai, China",31.2304,121.4737
Tennant Company,Parts of floor cleaning machines,"Minneapolis, Minnesota, USA",44.9778,-93.2650
Tennant Company,Parts of floor cleaning machines,"Holland, Michigan, USA",42.7875,-86.1089
Tennant Company,Parts of floor cleaning machines,"Uden, Netherlands",51.6607,5.6177
Tennant Company,Parts of floor cleaning machines,"Shanghai, China",31.2304,121.4737
Products,"Milk and cream, not concentrated nor containing added sugar or other sweetening matter, of a fat content, by weight, exceeding 1% but not exceeding 6%",Factory A,40.712776,-74.005974
Products,"Milk and cream, not concentrated nor containing added sugar or other sweetening matter, of a fat content, by weight, exceeding 1% but not exceeding 6%",Factory B,34.052235,-118.243683
Products,"Milk and cream, not concentrated nor containing added sugar or other sweetening matter, of a fat content, by weight, exceeding 1% but not exceeding 6%",Factory C,51.507351,-0.127758
Products,"Bread, pastry, cakes, biscuits and other bakers' wares, whether or not containing cocoa; communion wafers, empty cachets of a kind suitable for pharmaceutical use, sealing wafers, rice paper and similar products","123 Baker Street, London, UK",51.523776,-0.158538
Products,"Bread, pastry, cakes, biscuits and other bakers' wares, whether or not containing cocoa; communion wafers, empty cachets of a kind suitable for pharmaceutical use, sealing wafers, rice paper and similar products","456 Pastry Lane, Paris, France",48.856613,2.352222
Products,"Bread, pastry, cakes, biscuits and other bakers' wares, whether or not containing cocoa; communion wafers, empty cachets of a kind suitable for pharmaceutical use, sealing wafers, rice paper and similar products","789 Cake Avenue, New York, USA",40.712776,-74.005974
"BioCryst Pharmaceuticals, Inc.",Pharmaceutical Products,"Durham, North Carolina, USA",35.9940,-78.8986
"BioCryst Pharmaceuticals, Inc.",Pharmaceutical Products,"Birmingham, Alabama, USA",33.5186,-86.8104
"Arvinas, Inc.",Medicaments consisting of mixed or unmixed products for therapeutic or prophylactic uses,"100 College Street, New Haven, CT 06510, USA",41.3034,-72.9339
Warby Parker Inc.,"Spectacles, goggles and the like, corrective, protective or other","Sabae, Japan",35.9460,136.1842
Warby Parker Inc.,"Spectacles, goggles and the like, corrective, protective or other","Shenzhen, China",22.5431,114.0579
Warby Parker Inc.,"Spectacles, goggles and the like, corrective, protective or other","Dongguan, China",23.0205,113.7518
Warby Parker Inc.,Sunglasses,"Sabae, Japan",35.9469,136.1833
Warby Parker Inc.,Sunglasses,"Shenzhen, China",22.5431,114.0579
"V2X, Inc.",Automobiles and parts,"Detroit, Michigan, USA",42.3314,-83.0458
"V2X, Inc.",Automobiles and parts,"Stuttgart, Germany",48.7758,9.1829
"V2X, Inc.",Automobiles and parts,"Nagoya, Japan",35.1815,136.9066
"H&E Equipment Services, Inc.",Other self-propelled excavating machinery,Location A,34.0522,-118.2437
"H&E Equipment Services, Inc.",Other self-propelled excavating machinery,Location B,40.7128,-74.0060
"Edgewise Therapeutics, Inc.",Medicaments consisting of mixed or unmixed products for therapeutic or prophylactic uses,"Boulder, Colorado, USA",40.0150,-105.2705
"Peloton Interactive, Inc.","Exercise Equipment (e.g., Exercise Bicycles)","Troy Township, Ohio, USA",41.2959,-82.3316
"Peloton Interactive, Inc.","Exercise Equipment (e.g., Exercise Bicycles)","Taichung, Taiwan",24.1477,120.6736
"Peloton Interactive, Inc.","Fitness Equipment (e.g., Treadmills)","Shenzhen, China",22.543096,114.057865
"Peloton Interactive, Inc.","Fitness Equipment (e.g., Treadmills)","Taipei, Taiwan",25.032969,121.565418
"Peloton Interactive, Inc.","Fitness Equipment (e.g., Treadmills)","Troy Township, Ohio, USA",41.611833,-83.571113
"Peloton Interactive, Inc.","Exercise Equipment (e.g., Rowing Machines)","Peloton Output Park, Troy Township, Ohio, USA",41.3131,-82.8867
"Syndax Pharmaceuticals, Inc.",Medicaments consisting of mixed or unmixed products for therapeutic or prophylactic uses,"Waltham, Massachusetts, USA",42.3765,-71.2356
Stepan Company,Non-ionic organic surfactants,"Winder, Georgia, USA",33.9926,-83.7202
Stepan Company,Non-ionic organic surfactants,"Millsdale, Illinois, USA",41.4217,-88.1251
Stepan Company,Non-ionic organic surfactants,"Venezuela, Zulia, Venezuela",10.5000,-71.5000
Stepan Company,Non-ionic organic surfactants,"Mexico City, Mexico",19.4326,-99.1332
Stepan Company,Non-ionic organic surfactants,"Stalybridge, United Kingdom",53.4848,-2.0600
Stepan Company,Glycerol,"Winder, Georgia, USA",33.9929,-83.7204
Stepan Company,Glycerol,"Millsdale, Illinois, USA",41.5358,-88.1193
Stepan Company,Glycerol,"Vendas Novas, Portugal",38.6773,-8.4578
Stepan Company,Industrial Fatty Alcohols,"Millsdale, Illinois, USA",41.4225,-88.1472
"The Andersons, Inc.",Corn (maize),"Maumee, Ohio",41.5623,-83.6530
"The Andersons, Inc.",Corn (maize),"Logansport, Indiana",40.7545,-86.3567
"The Andersons, Inc.",Corn (maize),"Hemet, California",33.7476,-116.9731
"The Andersons, Inc.",Wheat,"Maumee, Ohio, USA",41.5623,-83.6530
"The Andersons, Inc.",Wheat,"Hemet, California, USA",33.7470,-116.9710
"The Andersons, Inc.",Soybeans,"Maumee, Ohio, USA",41.5623,-83.6530
"The Andersons, Inc.",Soybeans,"Logansport, Indiana, USA",40.7545,-86.3567
"The Andersons, Inc.",Soybeans,"Cedar Rapids, Iowa, USA",41.9779,-91.6656
"The Andersons, Inc.","Mineral or Chemical Fertilizers, Nitrogen","Maumee, Ohio, USA",41.5625,-83.6538
"The Andersons, Inc.","Mineral or Chemical Fertilizers, Nitrogen","Walbridge, Ohio, USA",41.5861,-83.4924
"The Andersons, Inc.","Mineral or Chemical Fertilizers, Nitrogen","Albion, Michigan, USA",42.2436,-84.7530
Vicor Corporation,"Static converters (e.g., power supplies, rectifiers)","Andover, Massachusetts, USA",42.6583,-71.1370
Vicor Corporation,Inductors,"Andover, Massachusetts, USA",42.6584,-71.1370
Lions Gate Entertainment Corporation,DVDs and Blu-ray Discs,"Stern Avenue, Commerce, California, USA",34.0006,-118.1598
Products,"Wooden furniture, other than for office, kitchen or bedroom use",Springfield Manufacturing Plant,39.7817,-89.6501
Products,"Wooden furniture, other than for office, kitchen or bedroom use",Jacksonville Production Facility,30.3322,-81.6557
Products,"Wooden furniture, other than for office, kitchen or bedroom use",Boulder Factory,40.0150,-105.2705
"Franklin Electric Co., Inc.",Static Converters,"Bluffton, Indiana, USA",40.7384,-85.1718
"Franklin Electric Co., Inc.",Static Converters,"Madison, Wisconsin, USA",43.0731,-89.4012
"Apellis Pharmaceuticals, Inc.",Pegcetacoplan,"Waltham, Massachusetts, USA",42.3765,-71.2356
"Apellis Pharmaceuticals, Inc.",Pegcetacoplan,"Crestwood, Kentucky, USA",38.3245,-85.4725
"Cactus, Inc.","Tube or pipe fittings, of iron or steel","Bossier City, Louisiana, USA",32.515986,-93.732122
"Cactus, Inc.","Tube or pipe fittings, of iron or steel","Odessa, Texas, USA",31.845682,-102.367645
Columbia Sportswear Company,"Women's or girls' anoraks, wind-cheaters, etc. of man-made fibers","Portland, Oregon, USA",45.5152,-122.6784
Columbia Sportswear Company,"Women's or girls' anoraks, wind-cheaters, etc. of man-made fibers","Ho Chi Minh City, Vietnam",10.7769,106.7009
Columbia Sportswear Company,"Women's or girls' anoraks, wind-cheaters, etc. of man-made fibers","Dhaka, Bangladesh",23.8103,90.4125
Columbia Sportswear Company,"Women's or girls' anoraks, wind-cheaters, etc. of man-made fibers","Shenzhen, China",22.5431,114.0579
Columbia Sportswear Company,Sports footwear with outer soles and uppers of rubber or plastics,"Ho Chi Minh City, Vietnam",10.7769,106.7009
Columbia Sportswear Company,Sports footwear with outer soles and uppers of rubber or plastics,"Guangzhou, China",23.1291,113.2644
Columbia Sportswear Company,Sports footwear with outer soles and uppers of rubber or plastics,"Jakarta, Indonesia",-6.2088,106.8456
Products,Metal furniture other than for office use,"Los Angeles, California, USA",34.0522,-118.2437
Products,Metal furniture other than for office use,"Berlin, Germany",52.5200,13.4050
Products,Metal furniture other than for office use,"Sydney, Australia",-33.8688,151.2093
SFL Corporation Ltd,Tankers,"Hyundai Heavy Industries, Ulsan, South Korea",35.5384,129.3114
SFL Corporation Ltd,Tankers,"Daewoo Shipbuilding & Marine Engineering, Geoje, South Korea",34.8803,128.6217
"Winnebago Industries, Inc.",Motorhomes,"Forest City, Iowa, USA",43.2625,-93.6405
"Winnebago Industries, Inc.",Motorhomes,"Lake Mills, Iowa, USA",43.4191,-93.5325
"Winnebago Industries, Inc.",Motorhomes,"Charles City, Iowa, USA",43.0661,-92.6724
"Winnebago Industries, Inc.",Recreational Vehicle Trailers,"Forest City, Iowa, USA",43.2620,-93.6405
"Winnebago Industries, Inc.",Recreational Vehicle Trailers,"Middlebury, Indiana, USA",41.6753,-85.7069
"Winnebago Industries, Inc.",Recreational Vehicle Trailers,"Junction City, Oregon, USA",44.2198,-123.2059
"Winnebago Industries, Inc.",Recreational Vehicle Trailers,"Lake Mills, Iowa, USA",43.4191,-93.5346
"Winnebago Industries, Inc.",Camping Trailers,"Forest City, Iowa, USA",43.2636,-93.6377
"Winnebago Industries, Inc.",Camping Trailers,"Middlebury, Indiana, USA",41.6759,-85.7011
MannKind Corporation,Medicaments consisting of mixed or unmixed products for therapeutic or prophylactic uses,"Danbury, Connecticut, USA",41.3966,-73.4540
VSE Corporation,Parts and accessories for motor vehicles,Location A,38.8951,-77.0364
VSE Corporation,Parts and accessories for motor vehicles,Location B,39.9526,-75.1652
VSE Corporation,Parts and accessories of data processing equipment,"Alexandria, Virginia",38.8048,-77.0469
VSE Corporation,Parts and accessories of data processing equipment,"Chantilly, Virginia",38.8943,-77.4311
"NAPCO Security Technologies, Inc.",Burglar or fire alarms and similar apparatus,"Amityville, New York, USA",40.6718,-73.4131
"NAPCO Security Technologies, Inc.",Electric sound or visual signaling apparatus,"Amityville, New York, USA",40.6834,-73.4173
"NAPCO Security Technologies, Inc.","Other electrical machines and apparatus, having individual functions","Amityville, New York, USA",40.6842,-73.4157
"Helix Energy Solutions Group, Inc.","Parts for Boring or Sinking Machinery, Self-Propelled","Houston, Texas, USA",29.7604,-95.3698
"Helix Energy Solutions Group, Inc.","Parts for Boring or Sinking Machinery, Self-Propelled","Aberdeen, Scotland, UK",57.1497,-2.0943
"Keros Therapeutics, Inc.",Hormones and their derivatives,"Lexington, Massachusetts, USA",42.4464,-71.4594
World Kinect Corporation,Petroleum Bitumen,Example Location 1,12.3456,78.9012
World Kinect Corporation,Petroleum Bitumen,Example Location 2,23.4567,89.0123
"Perimeter Solutions, SA",Fire Retardants,"Green Bay, Wisconsin, USA",44.5133,-88.0133
"Perimeter Solutions, SA",Fire Retardants,"Rancho Cucamonga, California, USA",34.1064,-117.5931
"Perimeter Solutions, SA",Fire Retardants,"Irvine, California, USA",33.6846,-117.8265
"Perimeter Solutions, SA",Fire Retardants,"Moreland, Georgia, USA",33.2721,-84.7672
"Perimeter Solutions, SA",Fire Retardants,"Eugene, Oregon, USA",44.0521,-123.0868
"Perimeter Solutions, SA",Foam Suppressants,"Green Bay, Wisconsin, USA",44.5192,-88.0198
"Perimeter Solutions, SA",Foam Suppressants,"Rancho Cucamonga, California, USA",34.1064,-117.5931
"Ultra Clean Holdings, Inc.",Parts of machines and mechanical appliances,"Hayward, California, USA",37.6688,-122.0808
"Ultra Clean Holdings, Inc.",Parts of machines and mechanical appliances,"Austin, Texas, USA",30.2672,-97.7431
"Ultra Clean Holdings, Inc.",Parts of machines and mechanical appliances,"Shanghai, China",31.2304,121.4737
"Ultra Clean Holdings, Inc.",Parts of machines and mechanical appliances,Singapore,1.3521,103.8198
"Ultra Clean Holdings, Inc.",Parts and accessories of machines and apparatus for the manufacture of semiconductor devices,"Hayward, California, USA",37.6688,-122.0808
"Ultra Clean Holdings, Inc.",Parts and accessories of machines and apparatus for the manufacture of semiconductor devices,"Austin, Texas, USA",30.2672,-97.7431
"Ultra Clean Holdings, Inc.",Parts and accessories of machines and apparatus for the manufacture of semiconductor devices,"Shanghai, China",31.2304,121.4737
"Ultra Clean Holdings, Inc.",Parts and accessories of machines and apparatus for the manufacture of semiconductor devices,Singapore,1.3521,103.8198
"Ultra Clean Holdings, Inc.",Parts and accessories of machines and apparatus for the manufacture of semiconductor devices,"Penang, Malaysia",5.4164,100.3327
La-Z-Boy Incorporated,Upholstered seats with wooden frames,"Dayton, Tennessee, USA",35.4934,-85.0125
La-Z-Boy Incorporated,Upholstered seats with wooden frames,"Neosho, Missouri, USA",36.8701,-94.3674
La-Z-Boy Incorporated,Upholstered seats with wooden frames,"Siloam Springs, Arkansas, USA",36.1881,-94.5405
La-Z-Boy Incorporated,Upholstered seats with wooden frames,"Tupelo, Mississippi, USA",34.2576,-88.7034
La-Z-Boy Incorporated,"Seats with metal frames, upholstered","Dayton, Tennessee, USA",35.4934,-85.0125
La-Z-Boy Incorporated,"Seats with metal frames, upholstered","Neosho, Missouri, USA",36.8128,-94.3913
La-Z-Boy Incorporated,"Seats with metal frames, upholstered","Siloam Springs, Arkansas, USA",36.1881,-94.5405
La-Z-Boy Incorporated,Wooden furniture of a kind used in the bedroom,"Dayton, Tennessee, USA",35.4937,-85.0121
La-Z-Boy Incorporated,Wooden furniture of a kind used in the bedroom,"Neosho, Missouri, USA",36.8689,-94.3675
La-Z-Boy Incorporated,Wooden furniture of a kind used in the bedroom,"Siloam Springs, Arkansas, USA",36.1881,-94.5405
"Leggett & Platt, Incorporated",Helical springs,"Carthage, Missouri, USA",37.1764,-94.3103
"Leggett & Platt, Incorporated",Helical springs,"High Point, North Carolina, USA",35.9557,-80.0053
"Leggett & Platt, Incorporated",Helical springs,"Tauberbischofsheim, Germany",49.6228,9.6608
"Leggett & Platt, Incorporated","Seats with wooden frames, upholstered","High Point, North Carolina, USA",35.9557,-80.0053
"Leggett & Platt, Incorporated","Seats with wooden frames, upholstered","Tupelo, Mississippi, USA",34.2576,-88.7034
"Leggett & Platt, Incorporated","Seats with wooden frames, upholstered","Carthage, Missouri, USA",37.1764,-94.3105
Costamare Inc.,"Cruise Ships, Excursion Boats, Ferry-Boats, Cargo Ships, Barges","Athens, Greece",37.9838,23.7275
Costamare Inc.,Tankers,Not Applicable,,
Fox Factory Holding Corp.,Bicycle suspension components,"Watsonville, California, USA",36.9102,-121.7569
Fox Factory Holding Corp.,Bicycle suspension components,"Taichung City, Taiwan",24.1477,120.6736
Fox Factory Holding Corp.,Motorcycle suspension components,"Scotts Valley, California, USA",37.0484,-122.0156
Fox Factory Holding Corp.,Motorcycle suspension components,"Taichung, Taiwan",24.1477,120.6736
Fox Factory Holding Corp.,ATV suspension components,"Braselton, Georgia, USA",34.1403,-83.8241
Fox Factory Holding Corp.,ATV suspension components,"Scotts Valley, California, USA",37.0517,-122.0147
Fox Factory Holding Corp.,Automotive suspension systems,"Braselton, Georgia, USA",34.1095,-83.7628
Fox Factory Holding Corp.,Automotive suspension systems,"Byron, Georgia, USA",32.6535,-83.7599
Fox Factory Holding Corp.,Automotive suspension systems,"Taichung, Taiwan",24.1477,120.6736
Diebold Nixdorf Incorporated,"Point-of-sale terminals, ATMs and similar machines","North Canton, Ohio, USA",40.8759,-81.4026
Diebold Nixdorf Incorporated,"Point-of-sale terminals, ATMs and similar machines","Paderborn, Germany",51.7189,8.7575
Diebold Nixdorf Incorporated,"Point-of-sale terminals, ATMs and similar machines","Manaus, Brazil",-3.1190,-60.0217
Diebold Nixdorf Incorporated,"Point-of-sale terminals, ATMs and similar machines","Shanghai, China",31.2304,121.4737
Diebold Nixdorf Incorporated,"Input or output units, whether or not containing storage units in the same housing","North Canton, Ohio, USA",40.8759,-81.4026
Diebold Nixdorf Incorporated,"Input or output units, whether or not containing storage units in the same housing","Paderborn, Germany",51.7189,8.7544
Diebold Nixdorf Incorporated,"Input or output units, whether or not containing storage units in the same housing","Suzhou, China",31.2989,120.5853
Diebold Nixdorf Incorporated,"Input or output units, whether or not containing storage units in the same housing","Manaus, Brazil",-3.1190,-60.0217
Diebold Nixdorf Incorporated,"Office machines, n.e.s.","North Canton, Ohio, USA",40.8756,-81.4023
Diebold Nixdorf Incorporated,"Office machines, n.e.s.","Paderborn, Germany",51.7189,8.7575
Diebold Nixdorf Incorporated,"Office machines, n.e.s.","Manaus, Brazil",-3.1190,-60.0217
Diebold Nixdorf Incorporated,"Office machines, n.e.s.","Shanghai, China",31.2304,121.4737
Harmonic Inc.,"Reception apparatus for television, whether or not incorporating radio-broadcast receivers or sound/video recording or reproducing apparatus","San Jose, California, USA",37.3688,-121.9192
Harmonic Inc.,"Reception apparatus for television, whether or not incorporating radio-broadcast receivers or sound/video recording or reproducing apparatus","Brest, France",48.3904,-4.4861
Enovix Corporation,Lithium-ion Batteries,"Fremont, California, USA",37.5485,-121.9886
Compass Diversified Holdings,Exercise Equipment,"Cypress, California, USA",33.8169,-118.0373
Compass Diversified Holdings,Exercise Equipment,"Columbus, Ohio, USA",39.9612,-82.9988
Compass Diversified Holdings,Exercise Equipment,"Falmouth, Kentucky, USA",38.6723,-84.3324
Compass Diversified Holdings,Medical Instruments and Appliances,"Carlsbad, California, USA",33.1581,-117.3506
Compass Diversified Holdings,Medical Instruments and Appliances,"Northfield, New Hampshire, USA",43.4445,-71.5898
Compass Diversified Holdings,"Travel, Sports and Similar Bags","Oroville, California, USA",39.513775,-121.556359
Compass Diversified Holdings,"Travel, Sports and Similar Bags","Bozeman, Montana, USA",45.6770,-111.0429
Compass Diversified Holdings,Wooden Furniture,"Grand Rapids, Michigan, USA",42.9634,-85.6681
Compass Diversified Holdings,Wooden Furniture,"Phoenix, Arizona, USA",33.4484,-112.0740
TeraWulf Inc.,"Processing units other than those of subheading 8471.41 or 8471.49, whether or not containing in the same housing one or two of the following types of units: storage units, input units, output units","Lake Mariner Facility, New York, USA",43.0987,-78.9903
TeraWulf Inc.,"Processing units other than those of subheading 8471.41 or 8471.49, whether or not containing in the same housing one or two of the following types of units: storage units, input units, output units","Nautilus Cryptomine, Pennsylvania, USA",40.2732,-76.8867
Blue Bird Corporation,"Motor vehicles for the transport of ten or more persons, including the driver","Fort Valley, Georgia, USA",32.5582,-83.8877
Blue Bird Corporation,Other motor vehicles for the transport of ten or more persons,"Fort Valley, Georgia, USA",32.5585,-83.8877
"Plug Power, Inc.",Electric Generating Sets and Rotary Converters,"Latham, New York, USA",42.7465,-73.7593
"Plug Power, Inc.",Electric Generating Sets and Rotary Converters,"Rochester, New York, USA",43.1566,-77.6088
"Plug Power, Inc.",Electric Generating Sets and Rotary Converters,"Slingerlands, New York, USA",42.6295,-73.8659
"Plug Power, Inc.",Other Electrical Machines and Apparatus,"Latham, New York, USA",42.7431,-73.7596
"Plug Power, Inc.",Other Electrical Machines and Apparatus,"Rochester, New York, USA",43.1610,-77.6109
"Plug Power, Inc.",Other Electrical Machines and Apparatus,"Spokane, Washington, USA",47.6588,-117.4260
"Plug Power, Inc.","Producer Gas or Water Gas Generators, with or without their Purifiers","Latham, New York, USA",42.7468,-73.7596
"Plug Power, Inc.","Producer Gas or Water Gas Generators, with or without their Purifiers","Rochester, New York, USA",43.1566,-77.6088
"Plug Power, Inc.","Producer Gas or Water Gas Generators, with or without their Purifiers","Slingerlands, New York, USA",42.6292,-73.8654
Sphere Entertainment Co.,Other Amusement and Entertainment Equipment,"Burbank, California, USA",34.1808,-118.3090
Sphere Entertainment Co.,Cameras and Projectors for Cinematographic Use,"Burbank, California, USA",34.1808,-118.3089
Sphere Entertainment Co.,Cameras and Projectors for Cinematographic Use,"Toronto, Ontario, Canada",43.651070,-79.347015
"Photronics, Inc.",Reticles,"Brookfield, Connecticut, USA",41.4512,-73.3665
"Photronics, Inc.",Reticles,"Boise, Idaho, USA",43.6150,-116.2023
"Photronics, Inc.",Reticles,"Austin, Texas, USA",30.2672,-97.7431
"Photronics, Inc.",Reticles,Korea,36.3826,127.3661
"Photronics, Inc.",Reticles,Taiwan,24.1499,120.6836
"Photronics, Inc.",Reticles,"Shanghai, China",31.2304,121.4737
"Photronics, Inc.",Photographic Plates and Film,"Brookfield, Connecticut, USA",41.4515,-73.3673
"Photronics, Inc.",Photographic Plates and Film,"Boise, Idaho, USA",43.6150,-116.2023
"Photronics, Inc.",Photographic Plates and Film,"Austin, Texas, USA",30.2672,-97.7431
"Photronics, Inc.",Photographic Plates and Film,"Eugene, Oregon, USA",44.0521,-123.0868
"Photronics, Inc.",Photographic Plates and Film,"Tainan, Taiwan",22.9997,120.2270
"Photronics, Inc.",Photographic Plates and Film,"Taichung, Taiwan",24.1477,120.6736
"Photronics, Inc.",Photographic Plates and Film,Korea,37.5665,126.9780
"Photronics, Inc.",Photographic Plates and Film,Singapore,1.3521,103.8198
Dana Incorporated,Drive Axles with Differential,"Lima, Ohio, USA",40.7426,-84.1052
Dana Incorporated,Drive Axles with Differential,"Pune, Maharashtra, India",18.5204,73.8567
Dana Incorporated,Drive Axles with Differential,"Gyor, Hungary",47.6875,17.6504
Dana Incorporated,Drive Axles with Differential,"Ramos Arizpe, Coahuila, Mexico",25.5671,-100.9289
Dana Incorporated,Drive Axles with Differential,"Bruges, Belgium",51.2093,3.2247
Dana Incorporated,Parts Suitable for Use with Engines of Heading 8407 or 8408,"Maumee, Ohio, USA",41.5628,-83.6538
Dana Incorporated,Parts Suitable for Use with Engines of Heading 8407 or 8408,"Grugliasco, Italy",45.073,7.5904
Dana Incorporated,Parts Suitable for Use with Engines of Heading 8407 or 8408,"Brugge, Belgium",51.2093,3.2247
Dana Incorporated,Parts Suitable for Use with Engines of Heading 8407 or 8408,"Rovereto, Italy",45.8902,11.0424
Dana Incorporated,Parts Suitable for Use with Engines of Heading 8407 or 8408,"Lima, Ohio, USA",40.7426,-84.1052
Dana Incorporated,Gear Boxes and Parts Thereof,"Maumee, Ohio, USA",41.5628,-83.6524
Dana Incorporated,Gear Boxes and Parts Thereof,"Olive Branch, Mississippi, USA",34.9618,-89.8295
Dana Incorporated,Gear Boxes and Parts Thereof,"Győr, Hungary",47.6875,17.6504
Dana Incorporated,Gear Boxes and Parts Thereof,"Rovereto, Italy",45.8905,11.0405
Dana Incorporated,Gear Boxes and Parts Thereof,"Pune, India",18.5204,73.8567
Dana Incorporated,Transmission Shafts and Cranks,"Lima, Ohio, USA",40.7426,-84.1052
Dana Incorporated,Transmission Shafts and Cranks,"Gyor, Hungary",47.6875,17.6504
Dana Incorporated,Transmission Shafts and Cranks,"Rovereto, Italy",45.8902,11.0406
Dana Incorporated,Transmission Shafts and Cranks,"Columbia, Missouri, USA",38.9517,-92.3341
Knowles Corporation,"Headphones, Earphones and Combined Microphone/Speaker Sets","Itasca, Illinois, USA",41.9750,-88.0078
Knowles Corporation,"Headphones, Earphones and Combined Microphone/Speaker Sets","Suzhou, China",31.2989,120.5853
Knowles Corporation,"Headphones, Earphones and Combined Microphone/Speaker Sets","Penang, Malaysia",5.4164,100.3327
Knowles Corporation,Microphones and Stands Therefor,"Itasca, Illinois, USA",41.9750,-88.0078
Knowles Corporation,Microphones and Stands Therefor,"Suzhou, Jiangsu, China",31.2989,120.5853
Knowles Corporation,Electronic Integrated Circuits,"Cebu, Philippines",10.3157,123.8854
Knowles Corporation,Electronic Integrated Circuits,"Suwon, South Korea",37.2636,127.0286
Knowles Corporation,Electronic Integrated Circuits,"Itasca, Illinois, USA",41.9750,-88.0078
STAAR Surgical Company,Intraocular Lenses,"Monrovia, California, USA",34.1484,-118.0019
STAAR Surgical Company,Intraocular Lenses,"Aliso Viejo, California, USA",33.5677,-117.7263
STAAR Surgical Company,Surgical Instruments and Appliances,"Monrovia, California, USA",34.1489,-118.0019
STAAR Surgical Company,Surgical Instruments and Appliances,"Aliso Viejo, California, USA",33.5650,-117.7288
Marathon Petroleum Corporation,Light oils and preparations (motor spirit/gasoline),"Garyville, Louisiana",30.0535,-90.6458
Marathon Petroleum Corporation,Light oils and preparations (motor spirit/gasoline),"Galveston Bay, Texas",29.7162,-95.0126
Marathon Petroleum Corporation,Light oils and preparations (motor spirit/gasoline),"Catlettsburg, Kentucky",38.4042,-82.5830
Marathon Petroleum Corporation,Light oils and preparations (motor spirit/gasoline),"Detroit, Michigan",42.2727,-83.1307
Marathon Petroleum Corporation,Light oils and preparations (motor spirit/gasoline),"Robinson, Illinois",39.0050,-87.7540
Marathon Petroleum Corporation,Light oils and preparations (motor spirit/gasoline),"Canton, Ohio",40.8075,-81.3789
Marathon Petroleum Corporation,Light oils and preparations (motor spirit/gasoline),"St. Paul Park, Minnesota",44.8410,-92.9942
Marathon Petroleum Corporation,Light oils and preparations (motor spirit/gasoline),"Anacortes, Washington",48.4998,-122.6127
Marathon Petroleum Corporation,Light oils and preparations (motor spirit/gasoline),"Martinez, California",38.0171,-122.1345
Marathon Petroleum Corporation,Light oils and preparations (motor spirit/gasoline),"Kenai, Alaska",60.5544,-151.2583
Marathon Petroleum Corporation,Other petroleum oils and oils obtained from bituminous minerals,"Garyville, Louisiana",30.0475,-90.6325
Marathon Petroleum Corporation,Other petroleum oils and oils obtained from bituminous minerals,"Catlettsburg, Kentucky",38.4069,-82.5911
Marathon Petroleum Corporation,Other petroleum oils and oils obtained from bituminous minerals,"Galveston Bay, Texas",29.7355,-94.9629
Marathon Petroleum Corporation,Other petroleum oils and oils obtained from bituminous minerals,"Robinson, Illinois",39.0106,-87.7400
Marathon Petroleum Corporation,Other petroleum oils and oils obtained from bituminous minerals,"Detroit, Michigan",42.2682,-83.1087
Marathon Petroleum Corporation,Other petroleum oils and oils obtained from bituminous minerals,"St. Paul Park, Minnesota",44.8403,-92.9894
Marathon Petroleum Corporation,Petroleum bitumen,"Garyville, Louisiana, USA",30.0569,-90.6218
Marathon Petroleum Corporation,Petroleum bitumen,"Detroit, Michigan, USA",42.2724,-83.1243
Marathon Petroleum Corporation,Petroleum bitumen,"Catlettsburg, Kentucky, USA",38.4046,-82.6025
Marathon Petroleum Corporation,Light oils and preparations (aviation spirit),"Garyville, Louisiana",30.0563,-90.6378
Marathon Petroleum Corporation,Light oils and preparations (aviation spirit),"Galveston Bay, Texas",29.7725,-95.0157
Marathon Petroleum Corporation,Light oils and preparations (aviation spirit),"Detroit, Michigan",42.2528,-83.1349
Phillips 66,"Petroleum Oils and Oils Obtained from Bituminous Minerals, Other Than Crude","Sweeny Refinery, Old Ocean, Texas, USA",29.0467,-95.7177
Phillips 66,"Petroleum Oils and Oils Obtained from Bituminous Minerals, Other Than Crude","Wood River Refinery, Roxana, Illinois, USA",38.8481,-90.0474
Phillips 66,"Petroleum Oils and Oils Obtained from Bituminous Minerals, Other Than Crude","Bayway Refinery, Linden, New Jersey, USA",40.6365,-74.2253
Phillips 66,"Petroleum Oils and Oils Obtained from Bituminous Minerals, Other Than Crude","Ferndale Refinery, Ferndale, Washington, USA",48.8612,-122.5948
Phillips 66,"Petroleum Oils and Oils Obtained from Bituminous Minerals, Other Than Crude","Ponca City Refinery, Ponca City, Oklahoma, USA",36.7036,-97.0856
Phillips 66,"Petroleum Oils and Oils Obtained from Bituminous Minerals, Other Than Crude","Lake Charles Refinery, Westlake, Louisiana, USA",30.2429,-93.2677
Phillips 66,Light Oils and Preparations,"Sweeny Refinery, Old Ocean, Texas, USA",29.0461,-95.7463
Phillips 66,Light Oils and Preparations,"Wood River Refinery, Roxana, Illinois, USA",38.8484,-90.0643
Phillips 66,Light Oils and Preparations,"Bayway Refinery, Linden, New Jersey, USA",40.6319,-74.2277
Phillips 66,Light Oils and Preparations,"Ferndale Refinery, Ferndale, Washington, USA",48.8262,-122.5785
Phillips 66,Light Oils and Preparations,"Ponca City Refinery, Ponca City, Oklahoma, USA",36.7275,-97.0522
Phillips 66,"Butanes, Liquefied","Sweeny, Texas, USA",29.0415,-95.6985
Phillips 66,"Butanes, Liquefied","Borger, Texas, USA",35.6676,-101.3977
Phillips 66,"Butanes, Liquefied","Belle Chasse, Louisiana, USA",29.8458,-89.9908
Phillips 66,"Butanes, Liquefied","Roxana, Illinois, USA",38.8336,-90.0762
"Fortinet, Inc.",Network routers,"Sunnyvale, California, USA",37.3688,-122.0363
"Fortinet, Inc.",Network routers,"Union City, California, USA",37.5958,-122.0199
"Fortinet, Inc.",Firewall appliances,"Sunnyvale, California, USA",37.3688,-122.0363
"Fortinet, Inc.",Firewall appliances,"Ottawa, Ontario, Canada",45.4215,-75.6972
Norfolk Southern Corporation,Brakes and Parts Thereof for Railway or Tramway Locomotives or Rolling Stock,"Roanoke Locomotive Shops, Roanoke, Virginia",37.2710,-79.9414
General Motors Company,"Motor vehicles for transport of persons, with a spark-ignition internal combustion reciprocating piston engine, of a cylinder capacity exceeding 1,500 cc but not exceeding 3,000 cc","Detroit-Hamtramck Assembly, Detroit, Michigan, USA",42.3817,-83.0442
General Motors Company,"Motor vehicles for transport of persons, with a spark-ignition internal combustion reciprocating piston engine, of a cylinder capacity exceeding 1,500 cc but not exceeding 3,000 cc","Fairfax Assembly, Kansas City, Kansas, USA",39.1314,-94.6195
General Motors Company,"Motor vehicles for transport of persons, with a spark-ignition internal combustion reciprocating piston engine, of a cylinder capacity exceeding 1,500 cc but not exceeding 3,000 cc","Lansing Grand River Assembly, Lansing, Michigan, USA",42.7085,-84.5361
General Motors Company,"Motor vehicles for transport of persons, with a spark-ignition internal combustion reciprocating piston engine, of a cylinder capacity exceeding 1,500 cc but not exceeding 3,000 cc","Oshawa Car Assembly, Oshawa, Ontario, Canada",43.8900,-78.8600
General Motors Company,"Motor vehicles for transport of persons, with a spark-ignition internal combustion reciprocating piston engine, of a cylinder capacity exceeding 1,500 cc but not exceeding 3,000 cc","Ramos Arizpe Assembly, Ramos Arizpe, Coahuila, Mexico",25.5673,-100.9378
General Motors Company,"Motor vehicles for transport of persons, with a spark-ignition internal combustion reciprocating piston engine, of a cylinder capacity exceeding 3,000 cc","Detroit/Hamtramck Assembly, Michigan, USA",42.3993,-83.0530
General Motors Company,"Motor vehicles for transport of persons, with a spark-ignition internal combustion reciprocating piston engine, of a cylinder capacity exceeding 3,000 cc","Arlington Assembly, Texas, USA",32.7222,-97.0671
General Motors Company,"Motor vehicles for transport of persons, with a spark-ignition internal combustion reciprocating piston engine, of a cylinder capacity exceeding 3,000 cc","Oshawa Car Assembly, Ontario, Canada",43.9057,-78.8631
General Motors Company,"Motor vehicles for transport of persons, with a spark-ignition internal combustion reciprocating piston engine, of a cylinder capacity exceeding 3,000 cc","Fairfax Assembly, Kansas, USA",39.1266,-94.6354
General Motors Company,"Motor vehicles for the transport of goods, with a spark-ignition internal combustion piston engine, of a gross vehicle weight not exceeding 5 tonnes","Fort Wayne Assembly, Roanoke, Indiana, USA",40.9734,-85.3567
General Motors Company,"Motor vehicles for the transport of goods, with a spark-ignition internal combustion piston engine, of a gross vehicle weight not exceeding 5 tonnes","Wentzville Assembly, Wentzville, Missouri, USA",38.8162,-90.8591
General Motors Company,"Motor vehicles for the transport of goods, with a spark-ignition internal combustion piston engine, of a gross vehicle weight not exceeding 5 tonnes","Silao Assembly, Silao, Guanajuato, Mexico",20.9942,-101.4256
General Motors Company,"Motor vehicles for the transport of goods, with a spark-ignition internal combustion piston engine, of a gross vehicle weight not exceeding 5 tonnes","Oshawa Assembly, Oshawa, Ontario, Canada",43.8963,-78.8635
General Motors Company,Gearboxes and parts thereof for motor vehicles,"Toledo Transmission Plant, Toledo, Ohio, USA",41.6641,-83.5754
General Motors Company,Gearboxes and parts thereof for motor vehicles,"Yantai Transmission Plant, Yantai, Shandong, China",37.4645,121.4479
General Motors Company,Gearboxes and parts thereof for motor vehicles,"Ramos Arizpe Transmission Plant, Ramos Arizpe, Coahuila, Mexico",25.5391,-100.9478
"Impinj, Inc.",Electronic Integrated Circuits,Taiwan (Outsourced Manufacturing),23.6978,120.9605
"Impinj, Inc.",Electronic Integrated Circuits,South Korea (Outsourced Manufacturing),35.9078,127.7669
Polaris Inc.,Motorcycles with reciprocating internal combustion piston engine,"Spirit Lake, Iowa, USA",43.4222,-95.1028
Polaris Inc.,Snowmobiles,"Roseau, Minnesota, USA",48.8469,-95.7575
Polaris Inc.,All-terrain vehicles (ATVs),"Roseau, Minnesota, USA",48.8461,-95.7605
Polaris Inc.,All-terrain vehicles (ATVs),"Opole, Poland",50.6751,17.9213
Polaris Inc.,Motorcycles with electric motor,"Spirit Lake, Iowa, USA",43.4220,-95.1025
California Resources Corporation,Crude Oil,"Elk Hills Field, Kern County, California",35.3095,-119.5272
California Resources Corporation,Crude Oil,"Torrance Field, Los Angeles County, California",33.8358,-118.3414
California Resources Corporation,Crude Oil,"Huntington Beach Field, Orange County, California",33.6595,-117.9988
California Resources Corporation,Crude Oil,"Long Beach Field, Los Angeles County, California",33.7701,-118.1937
California Resources Corporation,Crude Oil,"Wilmington Field, Los Angeles County, California",33.7750,-118.2130
California Resources Corporation,Natural Gas,San Joaquin Basin,35.2828,-119.4579
California Resources Corporation,Natural Gas,Los Angeles Basin,33.9894,-118.1786
California Resources Corporation,Natural Gas,Sacramento Basin,38.5816,-121.4944
California Resources Corporation,Natural Gas,Ventura Basin,34.2746,-119.2290
"CareDx, Inc.","Instruments and Appliances Used in Medical, Surgical, Dental or Veterinary Sciences, N.E.S.O.I.","Brisbane, California, USA",37.6846,-122.4058
"CareDx, Inc.","Instruments and Appliances Used in Medical, Surgical, Dental or Veterinary Sciences, N.E.S.O.I.","Fremont, California, USA",37.5485,-121.9886
Steelcase Inc.,Wooden Furniture for Offices,"Grand Rapids, Michigan, USA",42.9634,-85.6681
Steelcase Inc.,Wooden Furniture for Offices,"Rosenheim, Germany",47.8561,12.1228
Steelcase Inc.,Metal Furniture for Offices,"Grand Rapids, Michigan, USA",42.9634,-85.6681
Steelcase Inc.,Metal Furniture for Offices,"Athens, Alabama, USA",34.8029,-86.9717
Steelcase Inc.,Metal Furniture for Offices,"Strasbourg, France",48.5734,7.7521
Steelcase Inc.,Metal Furniture for Offices,"Sarreguemines, France",49.1100,7.0675
Steelcase Inc.,Metal Furniture for Offices,"Rosenheim, Germany",47.8563,12.1225
"Janus International Group, Inc.","Doors, windows and their frames and thresholds for doors, of iron or steel","Temple, Georgia, USA",33.7371,-85.0322
"Janus International Group, Inc.","Doors, windows and their frames and thresholds for doors, of iron or steel","Butler, Indiana, USA",41.4298,-84.8711
"Janus International Group, Inc.","Doors, windows and their frames and thresholds for doors, of aluminum","Temple, Georgia, USA",33.7389,-85.0327
"IonQ, Inc.",Quantum Computers,"College Park, Maryland, USA",38.9945,-76.9279
"IonQ, Inc.",Quantum Computers,"Seattle, Washington, USA",47.6062,-122.3321
Gentherm Inc,Parts and accessories of bodies for motor vehicles,"Northville, Michigan, USA",42.4311,-83.4845
Gentherm Inc,Parts and accessories of bodies for motor vehicles,"Monterrey, Mexico",25.6866,-100.3161
Gentherm Inc,Parts and accessories of bodies for motor vehicles,"Odelzhausen, Germany",48.3103,11.1981
Gentherm Inc,Parts and accessories of bodies for motor vehicles,"Vynohradiv, Ukraine",48.1491,23.0302
Gentherm Inc,Parts and accessories of bodies for motor vehicles,"Shenzhen, China",22.5431,114.0579
Gentherm Inc,"Other machinery, plant or laboratory equipment","Prague, Czech Republic",50.0755,14.4378
Gentherm Inc,"Other machinery, plant or laboratory equipment","Monclova, Mexico",26.9070,-101.4200
Gentherm Inc,"Other machinery, plant or laboratory equipment","Vinh, Vietnam",18.6679,105.6661
Integra LifeSciences Holdings Corporation,Surgical Instruments and Appliances,"Plainsboro, New Jersey, USA",40.3330,-74.5933
Integra LifeSciences Holdings Corporation,Surgical Instruments and Appliances,"Boston, Massachusetts, USA",42.3601,-71.0589
Integra LifeSciences Holdings Corporation,Surgical Instruments and Appliances,"York, Pennsylvania, USA",39.9626,-76.7277
Integra LifeSciences Holdings Corporation,Surgical Instruments and Appliances,"Añasco, Puerto Rico",18.2855,-67.1415
Integra LifeSciences Holdings Corporation,Surgical Instruments and Appliances,"Cincinnati, Ohio, USA",39.1031,-84.5120
Integra LifeSciences Holdings Corporation,Surgical Instruments and Appliances,"Andover, England, UK",51.2126,-1.4921
Integra LifeSciences Holdings Corporation,Wound Care Products,"Plainsboro, New Jersey, USA",40.3330,-74.5949
Integra LifeSciences Holdings Corporation,Wound Care Products,"Saint-Aubin-lès-Elbeuf, France",49.2906,1.0167
Forestar Group Inc,Land Development Services,"Houston, Texas",29.7604,-95.3698
Forestar Group Inc,Land Development Services,"Austin, Texas",30.2672,-97.7431
Forestar Group Inc,Land Development Services,"Dallas, Texas",32.7767,-96.7970
Forestar Group Inc,Land Development Services,"San Antonio, Texas",29.4241,-98.4936
Forestar Group Inc,Land Development Services,"Atlanta, Georgia",33.7490,-84.3880
Forestar Group Inc,Residential Lot Development,"Houston, Texas",29.7604,-95.3698
Forestar Group Inc,Residential Lot Development,"Austin, Texas",30.2672,-97.7431
Forestar Group Inc,Residential Lot Development,"Dallas, Texas",32.7767,-96.7970
Forestar Group Inc,Residential Lot Development,"San Antonio, Texas",29.4241,-98.4936
Forestar Group Inc,Residential Lot Development,"Orlando, Florida",28.5383,-81.3792
Forestar Group Inc,Residential Lot Development,"Charlotte, North Carolina",35.2271,-80.8431
"Papa John's International, Inc.",Sauces and preparations therefor,"Louisville, Kentucky",38.2527,-85.7585
"Papa John's International, Inc.",Sauces and preparations therefor,"Hebron, Kentucky",39.0667,-84.7017
"Benchmark Electronics, Inc.","Boards, panels, consoles, desks, cabinets and other bases for electric control or the distribution of electricity","Penang, Malaysia",5.4164,100.3327
"Benchmark Electronics, Inc.","Boards, panels, consoles, desks, cabinets and other bases for electric control or the distribution of electricity","Huntsville, Alabama, USA",34.7304,-86.5861
"Benchmark Electronics, Inc.","Boards, panels, consoles, desks, cabinets and other bases for electric control or the distribution of electricity","Tempe, Arizona, USA",33.4255,-111.9400
"Schrodinger, Inc.",Nucleic acids and their salts; other heterocyclic compounds,,,
"Schrodinger, Inc.",Instruments and apparatus for physical or chemical analysis,"Portland, Oregon, USA",45.5051,-122.6750
"Schrodinger, Inc.",Instruments and apparatus for physical or chemical analysis,"New York, New York, USA",40.7128,-74.0060
Dole plc,"Bananas, including plantains, fresh or dried","La Lima, Honduras",15.4334,-87.9221
Dole plc,"Bananas, including plantains, fresh or dried","Changuinola, Panama",9.4333,-82.5167
Dole plc,"Bananas, including plantains, fresh or dried","Quepos, Costa Rica",9.4319,-84.1617
Dole plc,"Bananas, including plantains, fresh or dried","Puerto Armuelles, Panama",8.2833,-82.8667
Dole plc,"Bananas, including plantains, fresh or dried","Almirante, Panama",9.3000,-82.4000
Dole plc,"Bananas, including plantains, fresh or dried","Limón, Costa Rica",10.0024,-83.0841
Dole plc,"Pineapples, fresh or dried","Hawaii, USA",19.8968,-155.5828
Dole plc,"Pineapples, fresh or dried",Costa Rica,9.7489,-83.7534
Dole plc,"Pineapples, fresh or dried",Philippines,12.8797,121.7740
Dole plc,"Lemons and limes, fresh or dried","Sinaloa, Mexico",25.1721,-107.4795
Dole plc,"Lemons and limes, fresh or dried","Jalisco, Mexico",20.6597,-103.3496
Dole plc,"Lemons and limes, fresh or dried","Lima, Peru",-12.0464,-77.0428
Dole plc,"Lemons and limes, fresh or dried","Piura, Peru",-5.1945,-80.6328
Dole plc,"Peppers (Capsicum or Pimenta), fresh or chilled","Salinas Valley, California, USA",36.6777,-121.6555
Dole plc,"Peppers (Capsicum or Pimenta), fresh or chilled","Culiacán, Sinaloa, Mexico",24.8091,-107.3940
Dole plc,"Peppers (Capsicum or Pimenta), fresh or chilled","Alajuela, Costa Rica",10.0162,-84.2116
"Disc Medicine, Inc.",Medicaments consisting of mixed or unmixed products for therapeutic or prophylactic uses,"Watertown, Massachusetts, USA",42.370929,-71.182832
"Greenbrier Companies, Inc.","Railway or tramway goods vans and wagons, not self-propelled","Portland, Oregon, USA",45.5051,-122.6750
"Greenbrier Companies, Inc.","Railway or tramway goods vans and wagons, not self-propelled","Gonzales, Louisiana, USA",30.2385,-90.9201
"Greenbrier Companies, Inc.","Railway or tramway goods vans and wagons, not self-propelled","Paranapanema, São Paulo, Brazil",-23.3878,-48.7226
"Greenbrier Companies, Inc.","Railway or tramway goods vans and wagons, not self-propelled","Monclova, Coahuila, Mexico",26.9068,-101.4200
"Greenbrier Companies, Inc.","Railway or tramway goods vans and wagons, not self-propelled","Świdnica, Poland",50.8431,16.4914
"Greenbrier Companies, Inc.",Parts of railway or tramway locomotives or rolling stock,"Portland, Oregon, USA",45.5051,-122.6750
"Greenbrier Companies, Inc.",Parts of railway or tramway locomotives or rolling stock,"González Catán, Buenos Aires, Argentina",-34.7578,-58.6201
"Greenbrier Companies, Inc.",Parts of railway or tramway locomotives or rolling stock,"Sahagún, Hidalgo, Mexico",20.0875,-98.5736
"Greenbrier Companies, Inc.",Parts of railway or tramway locomotives or rolling stock,"Świdnica, Poland",50.8430,16.4888
"Greenbrier Companies, Inc.",Parts of railway or tramway locomotives or rolling stock,"Monclova, Coahuila, Mexico",26.9066,-101.4206
"Greenbrier Companies, Inc.",Brakes and parts thereof for railway or tramway vehicles,"Portland, Oregon, USA",45.5122,-122.6587
"Greenbrier Companies, Inc.",Brakes and parts thereof for railway or tramway vehicles,"Sahagun, Mexico",19.8606,-98.5811
Products,"Motor vehicles for the transport of persons, with spark-ignition internal combustion reciprocating piston engine, cylinder capacity not exceeding 1,000 cc",Location Name 1,Latitude Value 1,Longitude Value 1
Products,"Motor vehicles for the transport of persons, with spark-ignition internal combustion reciprocating piston engine, cylinder capacity not exceeding 1,000 cc",Location Name 2,Latitude Value 2,Longitude Value 2
Products,Parts of turbojets or turbo propellers,"Toulouse, France",43.6045,1.4442
Products,Parts of turbojets or turbo propellers,"Seattle, Washington, USA",47.6062,-122.3321
Products,Parts of turbojets or turbo propellers,"Nagoya, Japan",35.1815,136.9066
CTS Corporation,Electronic Integrated Circuits,"Elkhart, Indiana, USA",41.6819935,-85.9766671
CTS Corporation,Electronic Integrated Circuits,"Juarez, Chihuahua, Mexico",31.690363,-106.4245478
CTS Corporation,Electronic Integrated Circuits,"Kaohsiung, Taiwan",22.6272784,120.3014353
CTS Corporation,Parts Suitable for Use with the Apparatus of Electrical Circuits,"Lisle, Illinois, USA",41.8012,-88.0745
CTS Corporation,Parts Suitable for Use with the Apparatus of Electrical Circuits,"Elkhart, Indiana, USA",41.6819935,-85.9766671
CTS Corporation,Parts Suitable for Use with the Apparatus of Electrical Circuits,"Ostrava, Czech Republic",49.8209,18.2625
CTS Corporation,Parts Suitable for Use with the Apparatus of Electrical Circuits,"Kaohsiung, Taiwan",22.6273,120.3014
CTS Corporation,Parts Suitable for Use with the Apparatus of Electrical Circuits,"Juarez, Mexico",31.6904,-106.4245
CTS Corporation,Parts Suitable for Use with the Apparatus of Electrical Circuits,Singapore,1.3521,103.8198
CTS Corporation,Parts Suitable for Use with the Apparatus of Electrical Circuits,"Matamoros, Mexico",25.8674,-97.5126
CTS Corporation,Switches for Electrical Circuits,"Elkhart, Indiana, USA",41.6819935,-85.9766671
CTS Corporation,Switches for Electrical Circuits,"Nogales, Sonora, Mexico",31.3086,-110.9422
CTS Corporation,Switches for Electrical Circuits,"Kaohsiung, Taiwan",22.6273,120.3014
"The Vita Coco Company, Inc.",Coconut Water,Sir Lanka,7.8731,80.7718
"The Vita Coco Company, Inc.",Coconut Water,Philippines,12.8797,121.7740
"The Vita Coco Company, Inc.",Coconut Water,Brazil,-14.2350,-51.9253
"The Vita Coco Company, Inc.",Coconut Water,Indonesia,-0.7893,113.9213
"The Vita Coco Company, Inc.",Coconut Oil,"General Santos City, Philippines",6.1164,125.1716
"The Vita Coco Company, Inc.",Coconut Oil,Sri Lanka,7.8731,80.7718
"The Vita Coco Company, Inc.",Coconut Snacks,"San Pablo City, Philippines",14.0687,121.3253
"The Vita Coco Company, Inc.",Coconut Snacks,"Cebu City, Philippines",10.3157,123.8854
Infinera Corporation,Telecommunications Equipment,"Sunnyvale, California, USA",37.3688,-122.0363
Infinera Corporation,Telecommunications Equipment,"Allentown, Pennsylvania, USA",40.6084,-75.4902
Infinera Corporation,Telecommunications Equipment,"Frisco, Texas, USA",33.1507,-96.8236
Infinera Corporation,Optical Networking Equipment,"Sunnyvale, California, USA",37.3688,-122.0363
Infinera Corporation,Optical Networking Equipment,"Allentown, Pennsylvania, USA",40.6084,-75.4902
Infinera Corporation,Optical Networking Equipment,"Stockholm, Sweden",59.3293,18.0686
Infinera Corporation,Photonic Integrated Circuits,"Sunnyvale, California, USA",37.3688,-122.0363
"Diamond Offshore Drilling, Inc.",Floating or submersible drilling or production platforms,Gulf of Mexico,27.5,-90.5
"Diamond Offshore Drilling, Inc.",Floating or submersible drilling or production platforms,North Sea,58.0,2.0
"Diamond Offshore Drilling, Inc.",Floating or submersible drilling or production platforms,West Africa,5.0,0.0
"Diamond Offshore Drilling, Inc.",Floating or submersible drilling or production platforms,Brazil,-22.0,-40.0
"Diamond Offshore Drilling, Inc.",Floating or submersible drilling or production platforms,Southeast Asia,1.0,104.0
"Diamond Offshore Drilling, Inc.",Other vessels for the transport of goods and offshore drilling,"Houston, Texas, USA",29.7604,-95.3698
"Diamond Offshore Drilling, Inc.",Other vessels for the transport of goods and offshore drilling,"Aberdeen, Scotland, UK",57.1497,-2.0943
"Diamond Offshore Drilling, Inc.",Other vessels for the transport of goods and offshore drilling,"Stavanger, Norway",58.9690,5.7331
"Caleres, Inc.",Footwear with outer soles and uppers of rubber or plastics,Dominican Republic,18.7357,-70.1627
"Caleres, Inc.",Footwear with outer soles and uppers of rubber or plastics,China,35.8617,104.1954
"Caleres, Inc.",Footwear with outer soles and uppers of rubber or plastics,Vietnam,14.0583,108.2772
"Caleres, Inc.","Footwear with outer soles of rubber, plastics, leather or composition leather and uppers of leather",Dominican Republic,18.7357,-70.1627
"Caleres, Inc.","Footwear with outer soles of rubber, plastics, leather or composition leather and uppers of leather",China,35.8617,104.1954
"Caleres, Inc.","Footwear with outer soles of rubber, plastics, leather or composition leather and uppers of leather",Vietnam,14.0583,108.2772
WK Kellogg Co,Prepared foods obtained by the swelling or roasting of cereals or cereal products,"Battle Creek, Michigan, USA",42.3211,-85.1797
WK Kellogg Co,Prepared foods obtained by the swelling or roasting of cereals or cereal products,"Lancaster, Pennsylvania, USA",40.0379,-76.3055
WK Kellogg Co,Prepared foods obtained by the swelling or roasting of cereals or cereal products,"Manchester, England, UK",53.4808,-2.2426
WK Kellogg Co,Prepared foods obtained by the swelling or roasting of cereals or cereal products,"Querétaro, Mexico",20.5888,-100.3899
WK Kellogg Co,Prepared foods obtained by the swelling or roasting of cereals or cereal products,"Botany, New South Wales, Australia",-33.9522,151.1969
WK Kellogg Co,"Cereal grains otherwise worked, prepared or preserved","Battle Creek, Michigan, USA",42.3210,-85.1797
WK Kellogg Co,"Cereal grains otherwise worked, prepared or preserved","Lancaster, Pennsylvania, USA",40.0379,-76.3055
WK Kellogg Co,"Cereal grains otherwise worked, prepared or preserved","Manchester, United Kingdom",53.4808,-2.2426
WK Kellogg Co,"Cereal grains otherwise worked, prepared or preserved","Querétaro, Mexico",20.5888,-100.3899
WK Kellogg Co,"Cereal grains otherwise worked, prepared or preserved","Botany, New South Wales, Australia",-33.9500,151.2000
WK Kellogg Co,"Pasta, whether or not cooked or stuffed (including ravioli, etc.), containing more than 20% by weight of sausage or meat","Battle Creek, Michigan",42.321152,-85.179714
WK Kellogg Co,"Pasta, whether or not cooked or stuffed (including ravioli, etc.), containing more than 20% by weight of sausage or meat","Omaha, Nebraska",41.256536,-95.934503
"Cadre Holdings, Inc.",Ballistic vests,"Jacksonville, Florida, USA",30.3322,-81.6557
"Cadre Holdings, Inc.",Ballistic vests,"Tijuana, Baja California, Mexico",32.5149,-117.0382
Dynavax Technologies Corporation,Vaccines for human medicine,"Berkeley, California, USA",37.8715,-122.2730
"Helios Technologies, Inc.",Hydraulic Power Engines and Motors,"Sarasota, Florida, USA",27.3364,-82.5307
"Helios Technologies, Inc.",Hydraulic Power Engines and Motors,"Milan, Italy",45.4642,9.1900
"Helios Technologies, Inc.",Hydraulic Power Engines and Motors,"Incheon, South Korea",37.4563,126.7052
"Helios Technologies, Inc.",Valves for Hydraulic or Pneumatic Transmissions,"Sarasota, Florida, USA",27.3364,-82.5307
"Helios Technologies, Inc.",Valves for Hydraulic or Pneumatic Transmissions,"Sun Hydraulics plant in Sarasota, Florida, USA",27.3333,-82.5308
"Helios Technologies, Inc.",Valves for Hydraulic or Pneumatic Transmissions,"Incheon, South Korea",37.4563,126.7052
"Apogee Enterprises, Inc.",Insulating Glass Units,"Owatonna, Minnesota, USA",44.0833,-93.2250
"Apogee Enterprises, Inc.",Insulating Glass Units,"Statesboro, Georgia, USA",32.4488,-81.7832
"Apogee Enterprises, Inc.",Glass Mirrors,"Owatonna, Minnesota, USA",44.0833,-93.2269
"Apogee Enterprises, Inc.",Glass Mirrors,"McCook, Illinois, USA",41.7986,-87.8378
"Apogee Enterprises, Inc.","Aluminum Doors, Windows, and Frames","Owatonna, Minnesota, USA",44.0865,-93.2263
"Apogee Enterprises, Inc.","Aluminum Doors, Windows, and Frames","Faribault, Minnesota, USA",44.2903,-93.2688
"Apogee Enterprises, Inc.","Aluminum Doors, Windows, and Frames","Wausau, Wisconsin, USA",44.9591,-89.6301
"Apogee Enterprises, Inc.",Aluminum Curtain Walls,"Owatonna, Minnesota, USA",44.0833,-93.2351
"Apogee Enterprises, Inc.",Aluminum Curtain Walls,"Wausau, Wisconsin, USA",44.9591,-89.6301
Avadel Pharmaceuticals plc,Medicaments consisting of mixed or unmixed products for therapeutic or prophylactic uses,"Chesterfield, Missouri, USA",38.6631,-90.5771
Avadel Pharmaceuticals plc,"Hormones and other medicaments, excluding antibiotics, for therapeutic or prophylactic uses, put up in measured doses","Château-Renault, France",47.5918,0.9178
"Ardelyx, Inc.",Medicaments consisting of mixed or unmixed products for therapeutic or prophylactic uses,"Fremont, California, USA",37.5483,-121.9886
"Alexander & Baldwin, Inc.","Wood in the rough, coniferous","Hawaii, USA",19.8968,-155.5828
"Alexander & Baldwin, Inc.","Raw cane sugar, not containing added flavoring or coloring","Puunene, Hawaii, USA",20.8397,-156.4633
Ingevity Corporation,Activated Carbon,"Covington, Virginia, USA",37.7781,-79.9935
Ingevity Corporation,Activated Carbon,"Zhuhai, Guangdong, China",22.2707,113.5767
Ingevity Corporation,Tall Oil Fatty Acids,"North Charleston, South Carolina, USA",32.8771,-80.0131
Ingevity Corporation,Tall Oil Fatty Acids,"Waynesboro, Georgia, USA",33.0908,-82.0157
Ingevity Corporation,Pavement Additives,"North Charleston, South Carolina, USA",32.8777,-79.9773
Ingevity Corporation,Pavement Additives,"DeRidder, Louisiana, USA",30.8469,-93.2902
"Harrow, Inc.","Hormones, prostaglandins, thromboxanes and leukotrienes, their derivatives and structural analogues","Nashville, Tennessee, USA",36.1627,-86.7816
"Harrow, Inc.","Hormones, prostaglandins, thromboxanes and leukotrienes, their derivatives and structural analogues","San Diego, California, USA",32.7157,-117.1611
"Harrow, Inc.",Gel preparations designed to be used in human or veterinary medicine as a lubricant for parts of the body for surgical operations or physical examinations or as a coupling agent between the body and medical instruments,"San Diego, California, USA",32.7157,-117.1611
"Harrow, Inc.",Gel preparations designed to be used in human or veterinary medicine as a lubricant for parts of the body for surgical operations or physical examinations or as a coupling agent between the body and medical instruments,"Nashville, Tennessee, USA",36.1627,-86.7816
Alkermes plc,"Medicaments consisting of mixed or unmixed products for therapeutic or prophylactic uses, not elsewhere specified","Wilmington, Ohio, USA",39.4456,-83.8288
Alkermes plc,"Medicaments consisting of mixed or unmixed products for therapeutic or prophylactic uses, not elsewhere specified","Athlone, County Westmeath, Ireland",53.4239,-7.9407
Alkermes plc,"Medicaments consisting of mixed or unmixed products for therapeutic or prophylactic uses, not elsewhere specified","Wilmington, Ohio, USA",39.4453,-83.8287
Alkermes plc,"Medicaments consisting of mixed or unmixed products for therapeutic or prophylactic uses, not elsewhere specified","Athlone, Ireland",53.4129,-7.9435
RH,Wooden Furniture,"High Point, North Carolina, USA",35.9557,-80.0053
RH,Wooden Furniture,"Conover, North Carolina, USA",35.7065,-81.2187
RH,Metal Furniture,"Conover, North Carolina, USA",35.7131,-81.2184
RH,Metal Furniture,"High Point, North Carolina, USA",35.9557,-80.0053
RH,Chandeliers and Other Electric Ceiling or Wall Lighting Fittings,"RH Distribution Center, Patterson, California, USA",37.4710,-121.1297
RH,Chandeliers and Other Electric Ceiling or Wall Lighting Fittings,"RH Furniture Factory, High Point, North Carolina, USA",35.9557,-80.0053
RH,Chandeliers and Other Electric Ceiling or Wall Lighting Fittings,"RH Lighting Manufacturing, Ningbo, Zhejiang, China",29.8683,121.5440
H. B. Fuller Company,Adhesives based on polymers of headings 39.01 to 39.13 or on rubber,"Vadnais Heights, Minnesota, USA",45.0572,-93.0877
H. B. Fuller Company,Adhesives based on polymers of headings 39.01 to 39.13 or on rubber,"Nanjing, Jiangsu, China",32.0617,118.7778
H. B. Fuller Company,Adhesives based on polymers of headings 39.01 to 39.13 or on rubber,"Pune, Maharashtra, India",18.5204,73.8567
H. B. Fuller Company,Adhesives based on polymers of headings 39.01 to 39.13 or on rubber,"St. Paul, Minnesota, USA",44.9537,-93.0900
H. B. Fuller Company,Adhesives based on polymers of headings 39.01 to 39.13 or on rubber,"Lüneburg, Germany",53.2463,10.4144
H. B. Fuller Company,Prepared glues and other adhesives,"Vadnais Heights, Minnesota, USA",45.0579,-93.0810
H. B. Fuller Company,Prepared glues and other adhesives,"Simpsonville, South Carolina, USA",34.7360,-82.2543
H. B. Fuller Company,Prepared glues and other adhesives,"Padua, Italy",45.4064,11.8768
H. B. Fuller Company,Prepared glues and other adhesives,"Pune, India",18.5204,73.8567
H. B. Fuller Company,Prepared glues and other adhesives,"Shanghai, China",31.2304,121.4737
H. B. Fuller Company,Prepared glues and other adhesives,"Nanjing, China",32.0603,118.7969
Novagold Resources Inc.,"Gold, unwrought","Donlin Gold Project, Alaska, USA",62.0193,-158.2164
InMode Ltd.,Aesthetic Medical Devices,"Yokneam, Israel",32.661343,35.104183
InMode Ltd.,Non-invasive Medical Instruments,"Yokneam Illit, Israel",32.6676,35.1003
FLEX LNG Ltd.,Liquefied Natural Gas (LNG) Transport Vessels,N/A,N/A,N/A
Xerox Holdings Corporation,"Printers, copying machines, and facsimile machines, capable of connecting to an automatic data processing machine or to a network","Webster, New York, USA",43.2123,-77.4296
Products,Seats of a kind used for aircraft,"Wichita, Kansas, USA",37.6889,-97.3361
Products,Seats of a kind used for aircraft,"Everett, Washington, USA",47.9574,-122.2448
Products,Seats of a kind used for aircraft,"Hamburg, Germany",53.5511,9.9937
Products,Seats of a kind used for aircraft,"Toulouse, France",43.6045,1.4442
Products,Wooden furniture for kitchens,"Factory A, Springfield",39.7817,-89.6501
Products,Wooden furniture for kitchens,"Manufacturing Plant B, Oakville",43.4503,-79.6829
Products,Wooden furniture for kitchens,"Production Site C, Greenville",34.8526,-82.3940
"Fresh Del Monte Produce, Inc.","Bananas, fresh or dried",Guatemala,15.7835,-90.2308
"Fresh Del Monte Produce, Inc.","Bananas, fresh or dried",Costa Rica,9.7489,-83.7534
"Fresh Del Monte Produce, Inc.","Bananas, fresh or dried",Ecuador,-1.8312,-78.1834
"Fresh Del Monte Produce, Inc.","Bananas, fresh or dried",Philippines,12.8797,121.7740
"Fresh Del Monte Produce, Inc.","Pineapples, fresh or dried",Costa Rica,9.748917,-83.753428
"Fresh Del Monte Produce, Inc.","Pineapples, fresh or dried",Philippines,12.879721,121.774017
"Fresh Del Monte Produce, Inc.","Pineapples, fresh or dried",Kenya,-1.286389,36.817223
"Fresh Del Monte Produce, Inc.","Mangoes, mangosteens, and guavas, fresh or dried","San José, Costa Rica",9.9281,-84.0907
"Fresh Del Monte Produce, Inc.","Mangoes, mangosteens, and guavas, fresh or dried","Guatemala City, Guatemala",14.6349,-90.5069
"Fresh Del Monte Produce, Inc.","Mangoes, mangosteens, and guavas, fresh or dried","Lima, Peru",-12.0464,-77.0428
"Fresh Del Monte Produce, Inc.","Mangoes, mangosteens, and guavas, fresh or dried","Manila, Philippines",14.5995,120.9842
"Fresh Del Monte Produce, Inc.","Mangoes, mangosteens, and guavas, fresh or dried","Nairobi, Kenya",-1.286389,36.817223
"Fresh Del Monte Produce, Inc.","Leeks and other alliaceous vegetables, fresh or chilled",Guatemala,15.7835,-90.2308
"Fresh Del Monte Produce, Inc.","Leeks and other alliaceous vegetables, fresh or chilled",Costa Rica,9.7489,-83.7534
"Fresh Del Monte Produce, Inc.","Leeks and other alliaceous vegetables, fresh or chilled",Honduras,15.2000,-86.2419
American Woodmark Corporation,Wooden Kitchen Cabinets,"Winchester, Virginia, USA",39.1857,-78.1633
American Woodmark Corporation,Wooden Kitchen Cabinets,"Lincolnton, North Carolina, USA",35.4735,-81.2543
American Woodmark Corporation,Wooden Kitchen Cabinets,"Jackson, Georgia, USA",33.2943,-83.9669
American Woodmark Corporation,Wooden Kitchen Cabinets,"Monticello, Kentucky, USA",36.8298,-84.8499
American Woodmark Corporation,Wooden Kitchen Cabinets,"Humboldt, Tennessee, USA",35.8192,-88.9153
American Woodmark Corporation,Wooden Kitchen Cabinets,"Kingman, Arizona, USA",35.1894,-114.0530
American Woodmark Corporation,Wooden Bathroom Vanities,"Lincolnton, North Carolina, USA",35.4743,-81.2546
American Woodmark Corporation,Wooden Bathroom Vanities,"Jackson, Georgia, USA",33.2943,-83.9669
American Woodmark Corporation,Wooden Bathroom Vanities,"Winchester, Virginia, USA",39.1857,-78.1633
American Woodmark Corporation,Wooden Kitchen Cabinets,"Winchester, Virginia, USA",39.1857,-78.1633
American Woodmark Corporation,Wooden Kitchen Cabinets,"Moorefield, West Virginia, USA",39.0648,-78.9728
American Woodmark Corporation,Wooden Kitchen Cabinets,"Jackson, Georgia, USA",33.2943,-83.9669
American Woodmark Corporation,Wooden Kitchen Cabinets,"Lincolnton, North Carolina, USA",35.4735,-81.2546
American Woodmark Corporation,Wooden Kitchen Cabinets,"Hamlet, North Carolina, USA",34.8838,-79.7054
American Woodmark Corporation,Wooden Kitchen Cabinets,"Gas City, Indiana, USA",40.4875,-85.6064
American Woodmark Corporation,Wooden Kitchen Cabinets,"Monticello, Kentucky, USA",36.8291,-84.8497
American Woodmark Corporation,Wooden Kitchen Cabinets,"Kingman, Arizona, USA",35.1894,-114.0530
American Woodmark Corporation,Wooden Kitchen Cabinets,"Humboldt, Tennessee, USA",35.8193,-88.9156
Products,"Pumps for liquids, whether or not fitted with a measuring device","Houston, Texas, USA",29.7604,-95.3698
Products,"Pumps for liquids, whether or not fitted with a measuring device","Berlin, Germany",52.5200,13.4050
Products,"Pumps for liquids, whether or not fitted with a measuring device","Shanghai, China",31.2304,121.4737
Products,Flanges of stainless steel,"Houston, Texas, USA",29.7604,-95.3698
Products,Flanges of stainless steel,"Mumbai, Maharashtra, India",19.0760,72.8777
Products,Flanges of stainless steel,"Shanghai, China",31.2304,121.4737
"Olaplex Holdings, Inc.",Hair Care Products,"Chatsworth, California, USA",34.2506,-118.6148
"RPC, Inc.",Parts for boring or sinking machinery of subheading 8430.41 or 8430.49,"Houston, Texas, USA",29.7604,-95.3698
"RPC, Inc.",Parts for boring or sinking machinery of subheading 8430.41 or 8430.49,"Odessa, Texas, USA",31.8457,-102.3676
"RPC, Inc.","Tools for working in the hand, pneumatic, hydraulic or with self-contained electric or non-electric motor, other than chain saws","Houston, Texas, USA",29.7604,-95.3698
"RPC, Inc.","Tools for working in the hand, pneumatic, hydraulic or with self-contained electric or non-electric motor, other than chain saws","Broussard, Louisiana, USA",30.1475,-91.9614
"RPC, Inc.",Chromatographs and electrophoresis instruments,"Atlanta, Georgia, USA",33.7490,-84.3880
"RPC, Inc.",Chromatographs and electrophoresis instruments,"Houston, Texas, USA",29.7604,-95.3698
"Cassava Sciences, Inc.",Medicaments consisting of mixed or unmixed products for therapeutic or prophylactic uses,"Austin, Texas, USA",30.2672,-97.7431
"Ingles Markets, Incorporated",Food preparations not elsewhere specified or included,"Asheville, North Carolina",35.5951,-82.5515
"Ingles Markets, Incorporated","Bread, pastry, cakes, biscuits and other bakers' wares","Black Mountain, North Carolina, USA",35.6179,-82.3218
"Ocular Therapeutix, Inc.",Ophthalmic Preparations,"Bedford, Massachusetts, USA",42.5149,-71.2590
"Ocular Therapeutix, Inc.",Surgical and Medical Instruments,"Bedford, Massachusetts, USA",42.4910,-71.2756
"Select Water Solutions, Inc.",Chemical mixtures for hydraulic fracturing,"Midland, Texas",32.0006,-102.0779
"Select Water Solutions, Inc.",Chemical mixtures for hydraulic fracturing,"Odessa, Texas",31.8457,-102.3676
"Select Water Solutions, Inc.",Chemical mixtures for hydraulic fracturing,"Pecos, Texas",31.4229,-103.4932
Adeia Inc.,Parts suitable for use solely or principally with the apparatus of headings 85.25 to 85.28,Location 1,37.7749,-122.4194
Adeia Inc.,Parts suitable for use solely or principally with the apparatus of headings 85.25 to 85.28,Location 2,34.0522,-118.2437
Adeia Inc.,"Machines for the reception, conversion and transmission or regeneration of voice, images or other data, including switching and routing apparatus","San Jose, California, USA",37.3382,-121.8863
"Vital Energy, Inc.",Crude Petroleum Oils,"Permian Basin, Texas, USA",31.6719,-102.3856
"Vital Energy, Inc.",Crude Petroleum Oils,"Delaware Basin, Texas, USA",31.8698,-103.5970
"Vital Energy, Inc.",Light Oils and Preparations,"Permian Basin, Texas",31.4334,-103.5004
"Vital Energy, Inc.",Light Oils and Preparations,"Delaware Basin, New Mexico",32.2140,-104.2141
"Oxford Industries, Inc.","Women's Trousers, of Cotton","Monclova, Mexico",26.9064,-101.4202
"Oxford Industries, Inc.","Women's Trousers, of Cotton","San Pedro Sula, Honduras",15.5007,-88.0271
"Oxford Industries, Inc.","Women's Trousers, of Cotton","Ho Chi Minh City, Vietnam",10.7769,106.7009
"AutoZone, Inc.",Parts and accessories of bodies for motor vehicles,Not Applicable,Not Applicable,Not Applicable
"AutoZone, Inc.",Gear boxes and parts for motor vehicles,"AutoZone Distribution Center, Lavonia, GA",34.4358,-83.1060
"AutoZone, Inc.",Gear boxes and parts for motor vehicles,"AutoZone Distribution Center, Terrell, TX",32.7488,-96.2753
Occidental Petroleum Corporation,Crude Petroleum Oils,"Permian Basin, Texas, USA",31.4340,-103.5355
Occidental Petroleum Corporation,Crude Petroleum Oils,"DJ Basin, Colorado, USA",39.5501,-104.9915
Occidental Petroleum Corporation,Crude Petroleum Oils,"Anadarko Basin, Oklahoma, USA",35.3735,-97.5290
Occidental Petroleum Corporation,Crude Petroleum Oils,"Gulf of Mexico, USA",27.9944,-89.4424
Occidental Petroleum Corporation,Crude Petroleum Oils,"Middle East, Oman",21.5126,55.9233
"Vital Farms, Inc.",Fresh Eggs,"Springfield, Missouri",37.208957,-93.292299
"Vital Farms, Inc.",Fresh Eggs,"Fayetteville, Arkansas",36.082157,-94.171854
"Vital Farms, Inc.",Fresh Eggs,"Columbus, Ohio",39.961178,-82.998795
"Vital Farms, Inc.",Butter,"Springfield, Missouri",37.2089572,-93.2922989
"Vital Farms, Inc.",Butter,"Eggville, Texas",30.267153,-97.743057
Lindsay Corporation,Agricultural or horticultural sprayers,"Lindsay, Nebraska, USA",41.7014,-97.6917
"Sana Biotechnology, Inc.",Gene therapy products,"Bothell, Washington, USA",47.7610,-122.2054
"ANI Pharmaceuticals, Inc.","Medicaments consisting of mixed or unmixed products for therapeutic or prophylactic uses, not put up in measured doses or in forms or packings for retail sale","Baudette, Minnesota, USA",48.7150,-94.6027
"ANI Pharmaceuticals, Inc.","Medicaments containing other antibiotics, put up in measured doses or for retail sale","Baudette, Minnesota, USA",48.7143,-94.6028
"Sally Beauty Holdings, Inc.",Eye make-up preparations,"Denton, Texas, USA",33.2148,-97.1331
Century Aluminum Company,"Unwrought Aluminum, Not Alloyed","Hawesville, Kentucky, USA",37.9145,-86.7489
Century Aluminum Company,"Unwrought Aluminum, Not Alloyed","Mt. Holly, South Carolina, USA",33.1951,-80.0161
Century Aluminum Company,"Unwrought Aluminum, Not Alloyed","Grundartangi, Iceland",64.3167,-21.7833
Century Aluminum Company,"Unwrought Aluminum, Alloyed","Hawesville, Kentucky, USA",37.9086,-86.7633
Century Aluminum Company,"Unwrought Aluminum, Alloyed","Sebree, Kentucky, USA",37.6115,-87.5294
Century Aluminum Company,"Unwrought Aluminum, Alloyed","Mount Holly, South Carolina, USA",33.2584,-80.0670
Century Aluminum Company,"Unwrought Aluminum, Alloyed","Grundartangi, Iceland",64.3175,-21.7791
Century Aluminum Company,Aluminum Waste and Scrap,"Hawesville, Kentucky, USA",37.9017,-86.7486
Century Aluminum Company,Aluminum Waste and Scrap,"Sebree, Kentucky, USA",37.5925,-87.5297
Century Aluminum Company,Aluminum Waste and Scrap,"Ravenswood, West Virginia, USA",38.9484,-81.7607
Century Aluminum Company,Aluminum Waste and Scrap,"Goose Creek, South Carolina, USA",32.9810,-80.0326
"Delek US Holdings, Inc.",Petroleum oils and oils obtained from bituminous minerals (other than crude),"Tyler, Texas, USA",32.3513,-95.3011
"Delek US Holdings, Inc.",Petroleum oils and oils obtained from bituminous minerals (other than crude),"El Dorado, Arkansas, USA",33.2076,-92.6663
"Delek US Holdings, Inc.",Petroleum oils and oils obtained from bituminous minerals (other than crude),"Krotz Springs, Louisiana, USA",30.5335,-91.7546
"Delek US Holdings, Inc.",Petroleum oils and oils obtained from bituminous minerals (other than crude),"Big Spring, Texas, USA",32.2504,-101.4787
"Delek US Holdings, Inc.",Light oils and preparations,"Tyler, Texas, USA",32.3408,-95.3097
"Delek US Holdings, Inc.",Light oils and preparations,"El Dorado, Arkansas, USA",33.2076,-92.6663
"Delek US Holdings, Inc.",Light oils and preparations,"Big Spring, Texas, USA",32.2504,-101.4787
"Delek US Holdings, Inc.",Light oils and preparations,"Krotz Springs, Louisiana, USA",30.5324,-91.7543
"Delek US Holdings, Inc.","Butanes, liquefied","Tyler, Texas, USA",32.3513,-95.3011
"Delek US Holdings, Inc.","Butanes, liquefied","El Dorado, Arkansas, USA",33.2076,-92.6663
"Delek US Holdings, Inc.","Butanes, liquefied","Big Spring, Texas, USA",32.2504,-101.4787
"Delek US Holdings, Inc.","Butanes, liquefied","Krotz Springs, Louisiana, USA",30.5332,-91.7515
Global Industrial Company,"Parts of air conditioning machines, comprising a motor-driven fan and elements for changing the temperature and humidity","Buford, Georgia, USA",34.1207,-84.0053
Global Industrial Company,"Parts of air conditioning machines, comprising a motor-driven fan and elements for changing the temperature and humidity","Pleasant Prairie, Wisconsin, USA",42.5531,-87.8959
Global Industrial Company,"Parts of air conditioning machines, comprising a motor-driven fan and elements for changing the temperature and humidity","Sparks, Nevada, USA",39.5349,-119.7527
"AtriCure, Inc.",Surgical Instruments and Apparatus,"Mason, Ohio, USA",39.3601,-84.3099
"AtriCure, Inc.",Cryoablation Devices,"Mason, Ohio, USA",39.3601,-84.3099
"AtriCure, Inc.",Ablation Systems,"Mason, Ohio, USA",39.3601,-84.3099
"MaxLinear, Inc","Processors and controllers, whether or not combined with memories, converters, logic circuits, amplifiers, clock and timing circuits, or other circuits","Carlsbad, California, USA",33.1239,-117.2829
"MaxLinear, Inc","Processors and controllers, whether or not combined with memories, converters, logic circuits, amplifiers, clock and timing circuits, or other circuits","Irvine, California, USA",33.6846,-117.8265
"MaxLinear, Inc","Processors and controllers, whether or not combined with memories, converters, logic circuits, amplifiers, clock and timing circuits, or other circuits","San Jose, California, USA",37.3382,-121.8863
"MaxLinear, Inc",Memories,"Carlsbad, California, USA",33.1239,-117.2832
"MaxLinear, Inc",Memories,"Chandler, Arizona, USA",33.3062,-111.8413
"MaxLinear, Inc",Memories,"Irvine, California, USA",33.6846,-117.8265
"Arcutis Biotherapeutics, Inc.","Medicaments consisting of mixed or unmixed products for therapeutic or prophylactic uses, put up in measured doses or in forms or packings for retail sale","Westlake Village, California",34.1456,-118.8056
"Tango Therapeutics, Inc.",Medicaments consisting of mixed or unmixed products for therapeutic or prophylactic uses,"40 Erie Street, Cambridge, MA, USA",42.3673,-71.0853
"Par Pacific Holdings, Inc.","Petroleum oils and oils obtained from bituminous minerals, other than crude; preparations not elsewhere specified or included, containing by weight 70% or more of petroleum oils or of oils obtained from bituminous minerals, these oils being the basic constituents of the preparations","Kapolei Refinery, Hawaii",21.3341,-158.0858
"Par Pacific Holdings, Inc.","Petroleum oils and oils obtained from bituminous minerals, other than crude; preparations not elsewhere specified or included, containing by weight 70% or more of petroleum oils or of oils obtained from bituminous minerals, these oils being the basic constituents of the preparations","Tacoma, Washington",47.2529,-122.4443
"Par Pacific Holdings, Inc.","Petroleum oils and oils obtained from bituminous minerals, other than crude; preparations not elsewhere specified or included, containing by weight 70% or more of petroleum oils or of oils obtained from bituminous minerals, these oils being the basic constituents of the preparations","Billings, Montana",45.7833,-108.5007
"Par Pacific Holdings, Inc.",Light oils and preparations,"Kapolei, Hawaii, USA",21.3278,-158.0819
"Par Pacific Holdings, Inc.",Light oils and preparations,"Tacoma, Washington, USA",47.2529,-122.4443
"Par Pacific Holdings, Inc.",Petroleum gases and other gaseous hydrocarbons,"Kapolei, Hawaii",21.3344,-158.0813
"Par Pacific Holdings, Inc.",Petroleum gases and other gaseous hydrocarbons,"Tacoma, Washington",47.2671,-122.4194
"Cohu, Inc.",Automatic semiconductor testing equipment,"Poway, California, USA",32.9628,-117.0359
"Cohu, Inc.",Automatic semiconductor testing equipment,"Osaka, Japan",34.6937,135.5023
"Cohu, Inc.",Automatic semiconductor testing equipment,"Malacca, Malaysia",2.1896,102.2501
"Cohu, Inc.",Other instruments and apparatus for measuring or checking electrical quantities,"Poway, California, USA",32.9628,-117.0359
"Cohu, Inc.",Other instruments and apparatus for measuring or checking electrical quantities,"Kolbermoor, Germany",47.8493,12.0647
"Cohu, Inc.",Other instruments and apparatus for measuring or checking electrical quantities,"Malacca, Malaysia",2.1896,102.2501
Tutor Perini Corporation,"Structures and parts of structures, of iron or steel, n.e.s.","Sylmar, California",34.3094,-118.4484
Tutor Perini Corporation,"Structures and parts of structures, of iron or steel, n.e.s.","Phoenix, Arizona",33.4484,-112.0740
H. B. Fuller Company,"Glaziers putty, grafting putty, resin cements and other mastics","Vadnais Heights, Minnesota, USA",45.0574,-93.0733
H. B. Fuller Company,"Glaziers putty, grafting putty, resin cements and other mastics","Mindelo, Portugal",41.3365,-8.7317
H. B. Fuller Company,"Glaziers putty, grafting putty, resin cements and other mastics","Nanjing, China",32.0603,118.7969
Products,Dredgers,"Rotterdam, Netherlands",51.9244,4.4777
Products,Dredgers,Singapore,1.3521,103.8198
Products,Dredgers,"Shanghai, China",31.2304,121.4737
Products,"Other Vessels, Including Light-Vessels, Fire-Floats, Floating Cranes, Etc.",Example Location 1,12.3456,78.9012
Products,"Other Vessels, Including Light-Vessels, Fire-Floats, Floating Cranes, Etc.",Example Location 2,34.5678,90.1234
"Dyne Therapeutics, Inc.",Medicaments consisting of mixed or unmixed products for therapeutic or prophylactic uses,"Waltham, Massachusetts, USA",42.3765,-71.2356
"Itron, Inc.",Gas meters,"Owenton, Kentucky, USA",38.5362,-84.8391
"Itron, Inc.",Gas meters,"Muncie, Indiana, USA",40.1934,-85.3864
"Itron, Inc.",Gas meters,"Reims, France",49.2583,4.0317
"Cricut, Inc.",Cutting Machines for Paper and Other Materials,"South Jordan, Utah, USA",40.5622,-111.9297
"Cricut, Inc.",Cutting Machines for Paper and Other Materials,"Hsinchu, Taiwan",24.8138,120.9675
"Cricut, Inc.",Electronic Machines with Connectivity,"South Jordan, Utah, USA",40.5622,-111.9297
"Collegium Pharmaceutical, Inc.","Medicaments containing other antibiotics, for therapeutic or prophylactic uses, put up in measured doses or in forms or packings for retail sale","Stoughton, Massachusetts, USA",42.1251,-71.1023
"Wolfspeed, Inc.",Light-emitting diodes (LEDs),"Durham, North Carolina, USA",35.9931,-78.8986
"Wolfspeed, Inc.","Transistors, other than photosensitive transistors","Durham, North Carolina, USA",35.9940,-78.8986
"Wolfspeed, Inc.","Transistors, other than photosensitive transistors","Fayetteville, Arkansas, USA",36.0822,-94.1719
"Wolfspeed, Inc.","Transistors, other than photosensitive transistors","Marcy, New York, USA",43.1734,-75.2913
"Wolfspeed, Inc.","Thyristors, diacs and triacs, other than photosensitive devices","Research Triangle Park, North Carolina, USA",35.9051,-78.8704
"Wolfspeed, Inc.","Thyristors, diacs and triacs, other than photosensitive devices","Freiberg, Saxony, Germany",50.9142,13.3437
"ScanSource, Inc.",Telecommunication Equipment,"Greenville, South Carolina, USA",34.8526,-82.3940
"ScanSource, Inc.",Telecommunication Equipment,"Harrisburg, Pennsylvania, USA",40.2737,-76.8844
Helen of Troy Limited,Beauty or make-up preparations and preparations for the care of the skin,"El Paso, Texas, USA",31.7619,-106.4850
Helen of Troy Limited,Beauty or make-up preparations and preparations for the care of the skin,"Tijuana, Baja California, Mexico",32.5149,-117.0382
Helen of Troy Limited,"Household articles and hygienic or toilet articles, of plastics","El Paso, Texas, USA",31.7619,-106.4850
Helen of Troy Limited,"Household articles and hygienic or toilet articles, of plastics","Shelby, Mississippi, USA",33.9507,-90.7673
Helen of Troy Limited,"Household articles and hygienic or toilet articles, of plastics","Olive Branch, Mississippi, USA",34.9618,-89.8295
"Day One Biopharmaceuticals, Inc.","Medicaments consisting of mixed or unmixed products for therapeutic or prophylactic uses, put up in measured doses or in forms or packings for retail sale","San Francisco, CA, USA",37.7749,-122.4194
Alpha and Omega Semiconductor Limited,"Transistors, Other than Photosensitive Transistors","Chongqing, China",29.56301,106.55156
Alpha and Omega Semiconductor Limited,"Transistors, Other than Photosensitive Transistors","Shanghai, China",31.23039,121.4737
Archer Aviation Inc.,"Helicopters of an unladen weight exceeding 2,000 kg","Covington, Georgia, USA",33.5968,-83.8602
Archer Aviation Inc.,"Aeroplanes and other aircraft, of an unladen weight exceeding 2,000 kg but not exceeding 15,000 kg","Palo Alto, California, USA",37.4419,-122.1430
Archer Aviation Inc.,"Aeroplanes and other aircraft, of an unladen weight exceeding 2,000 kg but not exceeding 15,000 kg","Covington, Georgia, USA",33.5968,-83.8602
"JELD-WEN Holding, Inc.",Wooden Doors and Frames,"Charlotte, North Carolina, USA",35.2271,-80.8431
"JELD-WEN Holding, Inc.",Wooden Doors and Frames,"Chiloquin, Oregon, USA",42.5762,-121.8650
"JELD-WEN Holding, Inc.",Wooden Doors and Frames,"Greenville, Texas, USA",33.1384,-96.1108
"JELD-WEN Holding, Inc.",Wooden Doors and Frames,"Hawkes Bay, New Zealand",-39.4333,176.8667
"JELD-WEN Holding, Inc.",Wooden Doors and Frames,"Melton, Victoria, Australia",-37.6833,144.5833
"JELD-WEN Holding, Inc.","Windows, French-Windows and Their Frames, Wooden","Chiloquin, Oregon, USA",42.5779,-121.8606
"JELD-WEN Holding, Inc.","Windows, French-Windows and Their Frames, Wooden","Grinnell, Iowa, USA",41.7434,-92.7226
"JELD-WEN Holding, Inc.","Windows, French-Windows and Their Frames, Wooden","Ringtown, Pennsylvania, USA",40.8668,-76.2336
"JELD-WEN Holding, Inc.",Steel Doors and Their Frames,"Chiloquin, Oregon, USA",42.5760,-121.8600
"JELD-WEN Holding, Inc.",Steel Doors and Their Frames,"Monroe, North Carolina, USA",35.0074,-80.5506
Kaiser Aluminum Corporation,"Aluminum Plates, Sheets, and Strip, of a Thickness Exceeding 0.2mm","Trentwood, Washington, USA",47.6999,-117.1949
Kaiser Aluminum Corporation,"Aluminum Plates, Sheets, and Strip, of a Thickness Exceeding 0.2mm","Newark, Ohio, USA",40.0581,-82.4013
Kaiser Aluminum Corporation,"Aluminum Plates, Sheets, and Strip, of a Thickness Exceeding 0.2mm","Warrick County, Indiana, USA",37.9585,-87.2733
Kaiser Aluminum Corporation,Aluminum Tubes and Pipes,"Kaiser Aluminum Tubes and Pipe, Richmond, Virginia, USA",37.5509,-77.4491
Kaiser Aluminum Corporation,Aluminum Tubes and Pipes,"Kaiser Aluminum Tubes and Pipe, Jackson, Tennessee, USA",35.6145,-88.8139
Prothena Corporation plc,Immunological Products,"Dublin, Ireland",53.349805,-6.26031
Prothena Corporation plc,Medicaments consisting of mixed or unmixed products for therapeutic or prophylactic uses,"Dublin, Ireland",53.349805,-6.26031
"XPEL, Inc.",Parts and accessories of motor vehicles,"San Antonio, Texas, USA",29.4241,-98.4936
"XPEL, Inc.","Boards, panels, consoles, desks, cabinets and other bases for electric control or the distribution of electricity","San Antonio, Texas, USA",29.4241,-98.4936
"BioLife Solutions, Inc.",Cryopreservation Media,"Bothell, Washington, USA",47.7601,-122.2054
"BioLife Solutions, Inc.",Cell Processing and Storage Solutions,"Bothell, Washington, USA",47.7610,-122.2051
"BioLife Solutions, Inc.",Cell Processing and Storage Solutions,"Athens, Ohio, USA",39.3292,-82.1013
"BioLife Solutions, Inc.",Biopreservation Media Products,"Bothell, Washington, USA",47.7610,-122.2054
"G-III Apparel Group, LTD.","Women's Overcoats, Carcoats, Capes, Cloaks, and Similar Articles of Man-made Fibers","Dongguan, China",23.0207,113.7518
"G-III Apparel Group, LTD.","Women's Overcoats, Carcoats, Capes, Cloaks, and Similar Articles of Man-made Fibers","Ho Chi Minh City, Vietnam",10.7769,106.7009
"G-III Apparel Group, LTD.","Women's Overcoats, Carcoats, Capes, Cloaks, and Similar Articles of Man-made Fibers","Dhaka, Bangladesh",23.8103,90.4125
"Cogent Biosciences, Inc.","Medicaments consisting of mixed or unmixed products for therapeutic or prophylactic uses, put up in measured doses or in forms or packings for retail sale","Waltham, Massachusetts, USA",42.3765,-71.2356
"Arlo Technologies, Inc.",Electrical Machines with Individual Functions,"San Jose, California, USA",37.3382,-121.8863
"Opko Health, Inc.","Medicaments consisting of mixed or unmixed products for therapeutic or prophylactic uses, put up in measured doses or in forms or packings for retail sale, n.e.s.","BioReference Laboratories Inc, Elmwood Park, NJ, USA",40.9020,-74.1243
"Opko Health, Inc.","Medicaments consisting of mixed or unmixed products for therapeutic or prophylactic uses, put up in measured doses or in forms or packings for retail sale, n.e.s.","OPKO Health, Inc. Manufacturing Facility, Waterford, Ireland",52.2593,-7.1101
"Opko Health, Inc.","Instruments and apparatus for physical or chemical analysis, n.e.s.","Woburn, Massachusetts, USA",42.4793,-71.1523
"Opko Health, Inc.","Instruments and apparatus for physical or chemical analysis, n.e.s.","Nesher, Israel",32.7650,35.0466
Products,"Furniture, wooden, other than for office, kitchen or bedroom use",Springfield Factory,39.7817,-89.6501
Products,"Furniture, wooden, other than for office, kitchen or bedroom use",Riverside Production Plant,33.9533,-117.3961
Products,"Furniture, wooden, other than for office, kitchen or bedroom use",Maplewood Workshop,44.9537,-93.0900
Products,"Women's or girls' dresses, of cotton, not knitted or crocheted","New York, USA",40.7128,-74.0060
Products,"Women's or girls' dresses, of cotton, not knitted or crocheted","Los Angeles, USA",34.0522,-118.2437
Products,"Women's or girls' dresses, of cotton, not knitted or crocheted","Dhaka, Bangladesh",23.8103,90.4125
Products,"Women's or girls' dresses, of cotton, not knitted or crocheted","Hanoi, Vietnam",21.0285,105.8542
Products,"Footwear with outer soles of rubber, plastics, leather or composition leather and uppers of leather",Location A,12.9715987,77.5945627
Products,"Footwear with outer soles of rubber, plastics, leather or composition leather and uppers of leather",Location B,34.0522342,-118.2436849
Products,"Footwear with outer soles of rubber, plastics, leather or composition leather and uppers of leather",Location C,51.5073509,-0.1277583
"Bristow Group, Inc.",Helicopters of an unladen weight exceeding 2000 kg,Not applicable,,
"Bristow Group, Inc.","Aircraft Launch Gear, Deck-Arrestor or Similar Gear; Ground Flying Trainers","Titusville, Florida, USA",28.6122,-80.8076
"Bristow Group, Inc.","Aircraft Launch Gear, Deck-Arrestor or Similar Gear; Ground Flying Trainers","Aberdeen, Scotland, UK",57.1497,-2.0943
"Artivion, Inc.",Surgical adhesives and sealants,"Plymouth, Minnesota, USA",45.0105,-93.4555
"Artivion, Inc.",Artificial heart valves and parts,"Kennesaw, Georgia, USA",34.0184,-84.6174
"Artivion, Inc.",Tissue preservation solutions,"Kennesaw, Georgia, USA",34.0194,-84.6155
"Transcat, Inc.","Instruments and apparatus for physical or chemical analysis, n.e.s.","Rochester, NY, USA",43.1566,-77.6088
"Transcat, Inc.","Instruments and apparatus for physical or chemical analysis, n.e.s.","Las Vegas, NV, USA",36.1699,-115.1398
"Transcat, Inc.","Instruments and apparatus for physical or chemical analysis, n.e.s.","San Juan, PR, USA",18.4655,-66.1057
"Transcat, Inc.","Parts and accessories for measuring or checking instruments and appliances, n.e.s.","Rochester, New York",43.1566,-77.6088
"Vir Biotechnology, Inc.",Antisera and other blood fractions,"South San Francisco, California, USA",37.654656,-122.407749
"ACM Research, Inc.","Machines and mechanical appliances having individual functions, not specified or included elsewhere in this chapter","Shanghai, China",31.2304,121.4737
"ACM Research, Inc.","Machines and mechanical appliances having individual functions, not specified or included elsewhere in this chapter","Fremont, California, USA",37.5483,-121.9886
"ACM Research, Inc.","Machines and mechanical appliances having individual functions, not specified or included elsewhere in this chapter","Cheonan, South Korea",36.8154,127.1139
MRC Global Inc.,Flanges of other alloy steel,"Houston, Texas, USA",29.7604,-95.3698
MRC Global Inc.,Flanges of other alloy steel,"Edmonton, Alberta, Canada",53.5461,-113.4938
MRC Global Inc.,Flanges of other alloy steel,Singapore,1.3521,103.8198
MRC Global Inc.,"Butt welding fittings, of iron or steel","Houston, Texas, USA",29.7604,-95.3698
MRC Global Inc.,"Other tube or pipe fittings, of iron or steel","Houston, Texas, USA",29.7604,-95.3698
MRC Global Inc.,"Other tube or pipe fittings, of iron or steel","Edmonton, Alberta, Canada",53.5461,-113.4938
MRC Global Inc.,"Other tube or pipe fittings, of iron or steel",Singapore,1.3521,103.8198
Imax Corporation,Cameras (Cinematographic),"Mississauga, Ontario, Canada",43.5890,-79.6441
Imax Corporation,Parts and Accessories for Cinematographic Equipment,"Mississauga, Ontario, Canada",43.5890,-79.6441
Imax Corporation,Parts and Accessories for Cinematographic Equipment,"Shanghai, China",31.2304,121.4737
"Avanos Medical, Inc.","Needles, catheters, cannulae and the like","Alpharetta, Georgia, USA",34.0754,-84.2941
"Avanos Medical, Inc.","Needles, catheters, cannulae and the like","Nogales, Sonora, Mexico",31.3322,-110.9400
"Avanos Medical, Inc.","Instruments and apparatus for medical, surgical or veterinary use","Alpharetta, Georgia, USA",34.0754,-84.2941
"Avanos Medical, Inc.","Instruments and apparatus for medical, surgical or veterinary use","Nogales, Mexico",31.3322,-110.9337
"Avanos Medical, Inc.","Instruments and apparatus for medical, surgical or veterinary use","Chicopee, Massachusetts, USA",42.1487,-72.6075
"Universal Logistics Holdings, Inc.",Motor vehicles for the transport of goods,,,
"Air Transport Services Group, Inc",Parts of aeroplanes or helicopters,"Wilmington, Ohio, USA",39.4276,-83.8287
PACCAR Inc.,Road Tractors for Semi-Trailers,"Chillicothe, Ohio, USA",39.3359,-83.0234
PACCAR Inc.,Road Tractors for Semi-Trailers,"Denton, Texas, USA",33.2148,-97.1331
PACCAR Inc.,Road Tractors for Semi-Trailers,"Mexicali, Baja California, Mexico",32.6245,-115.4523
PACCAR Inc.,Road Tractors for Semi-Trailers,"Eindhoven, Netherlands",51.4416,5.4697
PACCAR Inc.,Road Tractors for Semi-Trailers,"Leyland, Lancashire, United Kingdom",53.6976,-2.6877
PACCAR Inc.,Trucks with a Gross Vehicle Weight Exceeding 20 Metric Tons,"Renton, Washington, USA",47.4837,-122.2170
PACCAR Inc.,Trucks with a Gross Vehicle Weight Exceeding 20 Metric Tons,"Chillicothe, Ohio, USA",39.3331,-82.9824
